[
  {
    "id": "sok-4707",
    "name": "Şok Minifevziçakmak",
    "market": "sok",
    "lat": 41.0,
    "lon": 29.0
  },
  {
    "id": "migros-3296",
    "name": "Kadıköy Caferağa M Migros",
    "market": "migros",
    "lat": 40.98982,
    "lon": 29.02289
  },
  {
    "id": "bim-Q061",
    "name": "Rıhtım kadıköy",
    "market": "bim",
    "lat": 40.988914,
    "lon": 29.022757
  },
  {
    "id": "migros-564",
    "name": "Kadıköy Çarşı M Migros",
    "market": "migros",
    "lat": 40.99048,
    "lon": 29.024479
  },
  {
    "id": "migros-6679",
    "name": "Mjet Kadıköy Rasımpaşa Istanbu",
    "market": "migros",
    "lat": 40.994217,
    "lon": 29.024982
  },
  {
    "id": "sok-7238",
    "name": "Rıhtım Cdkadıköy",
    "market": "sok",
    "lat": 40.993748,
    "lon": 29.025595
  },
  {
    "id": "carrefour-5411",
    "name": "Istanbul Kadıköy Moda Cad",
    "market": "carrefour",
    "lat": 40.9888,
    "lon": 29.024935
  },
  {
    "id": "sok-7220",
    "name": "Osmanağa",
    "market": "sok",
    "lat": 40.991905,
    "lon": 29.026989
  },
  {
    "id": "a101-4130",
    "name": "Caferağa Kadıköy Istanbul",
    "market": "a101",
    "lat": 40.988155,
    "lon": 29.024855
  },
  {
    "id": "a101-7567",
    "name": "Osmanağa Kadıköy Istanbul",
    "market": "a101",
    "lat": 40.991867,
    "lon": 29.027124
  },
  {
    "id": "a101-4217",
    "name": "Rıhtım Kadıköy Istanbul",
    "market": "a101",
    "lat": 40.99321,
    "lon": 29.027313
  },
  {
    "id": "bim-5842",
    "name": "Caferağa  Kadıköy",
    "market": "bim",
    "lat": 40.987137,
    "lon": 29.024284
  },
  {
    "id": "a101-E437",
    "name": "Kırtasiyeci Kadıköy Istanbul",
    "market": "a101",
    "lat": 40.99006,
    "lon": 29.027351
  },
  {
    "id": "sok-7194",
    "name": "Sakız Skcaferağa",
    "market": "sok",
    "lat": 40.989136,
    "lon": 29.026802
  },
  {
    "id": "bim-K069",
    "name": "Yoğurtçu Şükrü kadıköy",
    "market": "bim",
    "lat": 40.992455,
    "lon": 29.027937
  },
  {
    "id": "a101-9324",
    "name": "Şahap Gürler Kadıköy Istanbul",
    "market": "a101",
    "lat": 40.997204,
    "lon": 29.026564
  },
  {
    "id": "sok-2494",
    "name": "Kadıköy Serasker",
    "market": "sok",
    "lat": 40.989483,
    "lon": 29.027952
  },
  {
    "id": "migros-207",
    "name": "Moda M Migros",
    "market": "migros",
    "lat": 40.98648,
    "lon": 29.02568
  },
  {
    "id": "migros-6656",
    "name": "Mjet Bahariye Kadıköy",
    "market": "migros",
    "lat": 40.987354,
    "lon": 29.02715
  },
  {
    "id": "sok-7210",
    "name": "Süleymanpaşa Bahariye",
    "market": "sok",
    "lat": 40.98891,
    "lon": 29.028555
  },
  {
    "id": "a101-0147",
    "name": "Halitağa Kadıköy Istanbul",
    "market": "a101",
    "lat": 40.991558,
    "lon": 29.028818
  },
  {
    "id": "sok-7190",
    "name": "Yeldeğirmeni",
    "market": "sok",
    "lat": 40.9937,
    "lon": 29.0303
  },
  {
    "id": "bim-5841",
    "name": "Yeldeğirmeni  Kadıköy",
    "market": "bim",
    "lat": 40.993584,
    "lon": 29.030403
  },
  {
    "id": "bim-L342",
    "name": "Bahariye kadıköy",
    "market": "bim",
    "lat": 40.98917,
    "lon": 29.029583
  },
  {
    "id": "migros-6699",
    "name": "Mjet Süleymanpaşa Kadıköy Ist",
    "market": "migros",
    "lat": 40.98919,
    "lon": 29.02967
  },
  {
    "id": "carrefour-5385",
    "name": "Istanbul Kadıköy Hasırcıbaşı",
    "market": "carrefour",
    "lat": 40.988136,
    "lon": 29.031778
  },
  {
    "id": "carrefour-5406",
    "name": "Istanbul Kadıköy Moda Bademalt",
    "market": "carrefour",
    "lat": 40.984867,
    "lon": 29.025433
  },
  {
    "id": "carrefour-1012",
    "name": "Istanbul Acıbadem Hıper",
    "market": "carrefour",
    "lat": 40.9988,
    "lon": 29.0316
  },
  {
    "id": "a101-8749",
    "name": "Rasimpaşa Kadıköy Istanbul",
    "market": "a101",
    "lat": 40.992355,
    "lon": 29.031242
  },
  {
    "id": "sok-4563",
    "name": "Şok Minikadıköy Elmalı",
    "market": "sok",
    "lat": 40.99249,
    "lon": 29.032423
  },
  {
    "id": "a101-7538",
    "name": "Yeldeğirmeni Kadıköy Istanbul",
    "market": "a101",
    "lat": 40.99413,
    "lon": 29.030266
  },
  {
    "id": "sok-11146",
    "name": "Kadıköy Çilek Sok",
    "market": "sok",
    "lat": 40.990456,
    "lon": 29.031872
  },
  {
    "id": "bim-5843",
    "name": "Salıpazarı  Kadıköy",
    "market": "bim",
    "lat": 40.9906,
    "lon": 29.032223
  },
  {
    "id": "migros-6678",
    "name": "Mjet Kuşdili Kadıköy Istanbul",
    "market": "migros",
    "lat": 40.988262,
    "lon": 29.033266
  },
  {
    "id": "migros-4592",
    "name": "Mjet Kadıköy Hasanpaşa",
    "market": "migros",
    "lat": 40.994137,
    "lon": 29.03673
  },
  {
    "id": "bim-5845",
    "name": "Sarayardı  Acıbadem",
    "market": "bim",
    "lat": 40.997177,
    "lon": 29.035028
  },
  {
    "id": "sok-7236",
    "name": "Kadıköy Belediye",
    "market": "sok",
    "lat": 40.99428,
    "lon": 29.037302
  },
  {
    "id": "a101-E703",
    "name": "Kurbağalıdere Kadıköy Istanbul",
    "market": "a101",
    "lat": 40.994316,
    "lon": 29.037176
  },
  {
    "id": "sok-2724",
    "name": "Kadıköy Hasanpaşa",
    "market": "sok",
    "lat": 40.994606,
    "lon": 29.03892
  },
  {
    "id": "bim-B726",
    "name": "Nazif Bey  Kadıköy",
    "market": "bim",
    "lat": 40.9957,
    "lon": 29.037928
  },
  {
    "id": "bim-5846",
    "name": "Merkez Hasanpaşa  Kadıköy",
    "market": "bim",
    "lat": 40.99493,
    "lon": 29.040611
  },
  {
    "id": "migros-3575",
    "name": "Mjet Acıbadem Dörtyol",
    "market": "migros",
    "lat": 40.99711,
    "lon": 29.035973
  },
  {
    "id": "a101-D296",
    "name": "Sarayardı Kadıköy Istanbul",
    "market": "a101",
    "lat": 40.997093,
    "lon": 29.034283
  },
  {
    "id": "migros-911",
    "name": "Fenerbahçe Stad Mm Migros",
    "market": "migros",
    "lat": 40.987698,
    "lon": 29.035412
  },
  {
    "id": "a101-7248",
    "name": "Hasanpaşa Kadıköy",
    "market": "a101",
    "lat": 40.9967,
    "lon": 29.040571
  },
  {
    "id": "carrefour-5022",
    "name": "Istanbul Zıverbey Mını",
    "market": "carrefour",
    "lat": 40.98881,
    "lon": 29.042284
  },
  {
    "id": "migros-6630",
    "name": "Mjet Kadıköy Yoğurtçu Parkı",
    "market": "migros",
    "lat": 40.986988,
    "lon": 29.033182
  },
  {
    "id": "tarim_kredi-5022",
    "name": "Istanbul Kadıköy Market",
    "market": "tarim_kredi",
    "lat": 40.9887,
    "lon": 29.04356
  },
  {
    "id": "sok-1022",
    "name": "Ziverbey Mağazası",
    "market": "sok",
    "lat": 40.98829,
    "lon": 29.043404
  },
  {
    "id": "carrefour-2057",
    "name": "Istanbul Kadıköy Fıkırtepe For",
    "market": "carrefour",
    "lat": 40.993137,
    "lon": 29.048769
  },
  {
    "id": "a101-E302",
    "name": "Uzunçayır Kadıköy Istanbul",
    "market": "a101",
    "lat": 40.996502,
    "lon": 29.047401
  },
  {
    "id": "migros-8188",
    "name": "Mjet Fikirtepe Mh Kadıköy Ist",
    "market": "migros",
    "lat": 40.995728,
    "lon": 29.048958
  },
  {
    "id": "bim-J484",
    "name": "Kuyubaşı kadıköy",
    "market": "bim",
    "lat": 40.98708,
    "lon": 29.045422
  },
  {
    "id": "migros-3694",
    "name": "Mjet Ziverbey Istanbul",
    "market": "migros",
    "lat": 40.98707,
    "lon": 29.045523
  },
  {
    "id": "bim-5847",
    "name": "Eğitim  Kadıköy",
    "market": "bim",
    "lat": 40.988613,
    "lon": 29.048506
  },
  {
    "id": "bim-6218",
    "name": "Uzunçayır  Kadıköy",
    "market": "bim",
    "lat": 40.996994,
    "lon": 29.04781
  },
  {
    "id": "sok-12447",
    "name": "Kadıköy Uhuvvet Sokak",
    "market": "sok",
    "lat": 40.998585,
    "lon": 29.04369
  },
  {
    "id": "a101-7552",
    "name": "Kuyubaşı Kadıköy Istanbul",
    "market": "a101",
    "lat": 40.987953,
    "lon": 29.048643
  },
  {
    "id": "a101-F459",
    "name": "Defne Kadıköy Istanbul",
    "market": "a101",
    "lat": 40.997803,
    "lon": 29.03692
  },
  {
    "id": "migros-7259",
    "name": "Mjet Acıbadem Ikbaliye Ist",
    "market": "migros",
    "lat": 40.9991,
    "lon": 29.03883
  },
  {
    "id": "sok-1509",
    "name": "Kadıköy Sude Sokak",
    "market": "sok",
    "lat": 40.987648,
    "lon": 29.049963
  },
  {
    "id": "carrefour-3605",
    "name": "Istanbul Kadıköy Fıkırtepe 107",
    "market": "carrefour",
    "lat": 40.990826,
    "lon": 29.053076
  },
  {
    "id": "bim-5839",
    "name": "Mandıra Cad  Kadıköy",
    "market": "bim",
    "lat": 40.993504,
    "lon": 29.050995
  },
  {
    "id": "migros-8879",
    "name": "1071 Kadıköy Istanbul M",
    "market": "migros",
    "lat": 40.991074,
    "lon": 29.052618
  },
  {
    "id": "bim-Q092",
    "name": "Kadıköy 1071 kadıköy",
    "market": "bim",
    "lat": 40.991135,
    "lon": 29.053488
  },
  {
    "id": "migros-8787",
    "name": "Optimist Residence Istanbul M",
    "market": "migros",
    "lat": 40.995544,
    "lon": 29.052158
  },
  {
    "id": "a101-H692",
    "name": "Fikirtepe Kadıköy Istanbul",
    "market": "a101",
    "lat": 40.990906,
    "lon": 29.05526
  },
  {
    "id": "a101-H850",
    "name": "Pırlanta Kadıköy Istanbul",
    "market": "a101",
    "lat": 40.989723,
    "lon": 29.05506
  },
  {
    "id": "carrefour-2073",
    "name": "Istanbul Kadıköy Fıkırtepe Şua",
    "market": "carrefour",
    "lat": 40.99541,
    "lon": 29.055202
  },
  {
    "id": "sok-6750",
    "name": "Volkan Sokak Merdivenköy",
    "market": "sok",
    "lat": 40.990322,
    "lon": 29.056349
  },
  {
    "id": "a101-5397",
    "name": "Neşe Salıpazarı Kadıköy Istanbul",
    "market": "a101",
    "lat": 40.998978,
    "lon": 29.050018
  },
  {
    "id": "migros-219",
    "name": "Kuyubaşı Mağazası",
    "market": "migros",
    "lat": 40.98545,
    "lon": 29.04791
  },
  {
    "id": "sok-7208",
    "name": "Tuğlacıbaşı Feneryolu",
    "market": "sok",
    "lat": 40.9853,
    "lon": 29.0479
  },
  {
    "id": "tarim_kredi-7437",
    "name": "Istanbul Kadıköy Fikirtepe",
    "market": "tarim_kredi",
    "lat": 40.99407,
    "lon": 29.05935
  },
  {
    "id": "a101-4119",
    "name": "Bahtlı Kadıköy Istanbul",
    "market": "a101",
    "lat": 40.98976,
    "lon": 29.056723
  },
  {
    "id": "bim-J676",
    "name": "Hızırbey kadıköy",
    "market": "bim",
    "lat": 40.988865,
    "lon": 29.055809
  },
  {
    "id": "migros-6335",
    "name": "Kadıköy 216 Mm Migros",
    "market": "migros",
    "lat": 40.994957,
    "lon": 29.058609
  },
  {
    "id": "a101-D698",
    "name": "Dumlupınar Kadıköy Istanbul",
    "market": "a101",
    "lat": 40.99411,
    "lon": 29.059711
  },
  {
    "id": "bim-5837",
    "name": "Fikirtepe  Kadıköy",
    "market": "bim",
    "lat": 40.990177,
    "lon": 29.0592
  },
  {
    "id": "sok-12518",
    "name": "Kadıköymektep Sokak",
    "market": "sok",
    "lat": 40.990032,
    "lon": 29.059103
  },
  {
    "id": "migros-3116",
    "name": "Mazharbey M Mıgros",
    "market": "migros",
    "lat": 40.98724,
    "lon": 29.06058
  },
  {
    "id": "sok-9492",
    "name": "Girişken Hızırbey",
    "market": "sok",
    "lat": 40.98615,
    "lon": 29.060223
  },
  {
    "id": "a101-F896",
    "name": "Konkord Kadıköy Istanbul",
    "market": "a101",
    "lat": 40.993362,
    "lon": 29.065292
  },
  {
    "id": "bim-H105",
    "name": "Erkin  Kadıköy",
    "market": "bim",
    "lat": 40.988598,
    "lon": 29.061718
  },
  {
    "id": "bim-Q679",
    "name": "Nur Fikirtepe kadıköy",
    "market": "bim",
    "lat": 40.99303,
    "lon": 29.067572
  },
  {
    "id": "migros-6966",
    "name": "Mjet Mandıra Caddesi Kadıköy",
    "market": "migros",
    "lat": 40.987823,
    "lon": 29.065926
  },
  {
    "id": "sok-13483",
    "name": "Üsküdar Ünalan Merkez",
    "market": "sok",
    "lat": 40.999,
    "lon": 29.0655
  },
  {
    "id": "sok-10850",
    "name": "Kadıköy Göztepe",
    "market": "sok",
    "lat": 40.983944,
    "lon": 29.061407
  },
  {
    "id": "a101-4247",
    "name": "Ünalan Üsküdar Istanbul",
    "market": "a101",
    "lat": 40.999214,
    "lon": 29.066422
  },
  {
    "id": "sok-7204",
    "name": "Salih Erimez Merdivenköy",
    "market": "sok",
    "lat": 40.9856,
    "lon": 29.06827
  },
  {
    "id": "bim-4762",
    "name": "Ayazma  Üsküdar",
    "market": "bim",
    "lat": 40.999535,
    "lon": 29.0657
  },
  {
    "id": "a101-0447",
    "name": "Bahriyeli Kadıköy Istanbul",
    "market": "a101",
    "lat": 40.98662,
    "lon": 29.072418
  },
  {
    "id": "a101-B103",
    "name": "Somuncubaba Ataşehir Istanbul",
    "market": "a101",
    "lat": 40.99747,
    "lon": 29.074703
  },
  {
    "id": "bim-Q487",
    "name": "Ressam Salih Erimez kadıköy",
    "market": "bim",
    "lat": 40.984905,
    "lon": 29.065191
  },
  {
    "id": "sok-245",
    "name": "Ayazma Cad Ünalan",
    "market": "sok",
    "lat": 41.00026,
    "lon": 29.067373
  },
  {
    "id": "sok-2233",
    "name": "Sahrayıcedid Merkez",
    "market": "sok",
    "lat": 40.98675,
    "lon": 29.07374
  },
  {
    "id": "migros-8248",
    "name": "Mjet Ortabahar Sk Kadıköy Ist",
    "market": "migros",
    "lat": 40.98472,
    "lon": 29.067347
  },
  {
    "id": "tarim_kredi-6002",
    "name": "Istanbul Üsküdar Ayazma",
    "market": "tarim_kredi",
    "lat": 41.00066,
    "lon": 29.06749
  },
  {
    "id": "carrefour-5400",
    "name": "Istanbul Kadıköy Şaır Arşı",
    "market": "carrefour",
    "lat": 40.986267,
    "lon": 29.074175
  },
  {
    "id": "migros-318",
    "name": "Soyak Mmm Migros",
    "market": "migros",
    "lat": 40.99993,
    "lon": 29.07287
  },
  {
    "id": "bim-G624",
    "name": "Yenişehir  Ataşehir",
    "market": "bim",
    "lat": 40.99559,
    "lon": 29.076927
  },
  {
    "id": "bim-G626",
    "name": "Niyazi Sayın  Ataşehir",
    "market": "bim",
    "lat": 40.992817,
    "lon": 29.078785
  },
  {
    "id": "a101-F699",
    "name": "Ebrar Ataşehir Istanbul",
    "market": "a101",
    "lat": 40.9957,
    "lon": 29.077417
  },
  {
    "id": "sok-10530",
    "name": "Ataşehir Güldeste Sok",
    "market": "sok",
    "lat": 40.99505,
    "lon": 29.07812
  },
  {
    "id": "a101-7148",
    "name": "Tamirhane Ataşehir Istanbul",
    "market": "a101",
    "lat": 40.992203,
    "lon": 29.079113
  },
  {
    "id": "sok-9791",
    "name": "Tarık Yılmaz",
    "market": "sok",
    "lat": 40.996864,
    "lon": 29.075567
  },
  {
    "id": "bim-K867",
    "name": "Akkale kadıköy",
    "market": "bim",
    "lat": 40.98858,
    "lon": 29.076777
  },
  {
    "id": "a101-7539",
    "name": "Merdivenköy Kadıköy Istanbul",
    "market": "a101",
    "lat": 40.988518,
    "lon": 29.077066
  },
  {
    "id": "sok-2987",
    "name": "Kadıköy Merdivenköy Sayım",
    "market": "sok",
    "lat": 40.98731,
    "lon": 29.076456
  },
  {
    "id": "bim-G628",
    "name": "Dudayev  Ataşehir",
    "market": "bim",
    "lat": 40.995403,
    "lon": 29.080572
  },
  {
    "id": "sok-9661",
    "name": "Dutlubahçe",
    "market": "sok",
    "lat": 40.993378,
    "lon": 29.0819
  },
  {
    "id": "migros-3791",
    "name": "Mjet Merdivenköy Istanbul",
    "market": "migros",
    "lat": 40.98587,
    "lon": 29.078526
  },
  {
    "id": "carrefour-5127",
    "name": "Istanbul Ataşehır Örnek Mah Mı",
    "market": "carrefour",
    "lat": 40.99794,
    "lon": 29.080984
  },
  {
    "id": "tarim_kredi-7608",
    "name": "Istanbul Kadıköy Imam Ramiz",
    "market": "tarim_kredi",
    "lat": 40.98429,
    "lon": 29.07615
  },
  {
    "id": "a101-8532",
    "name": "Arslan Ataşehir Istanbul",
    "market": "a101",
    "lat": 40.995567,
    "lon": 29.080063
  },
  {
    "id": "sok-10861",
    "name": "Şehit Cahar Dudayev",
    "market": "sok",
    "lat": 40.995487,
    "lon": 29.08349
  },
  {
    "id": "a101-4210",
    "name": "Örnek Ataşehir Istanbul",
    "market": "a101",
    "lat": 40.99721,
    "lon": 29.078152
  },
  {
    "id": "carrefour-3542",
    "name": "Istanbul Dumankaya Ikon Süper",
    "market": "carrefour",
    "lat": 40.9932,
    "lon": 29.0853
  },
  {
    "id": "sok-950",
    "name": "Yenisahra Mağazası",
    "market": "sok",
    "lat": 40.9874,
    "lon": 29.0802
  },
  {
    "id": "bim-G629",
    "name": "Yenibahar  Ataşehir",
    "market": "bim",
    "lat": 40.99801,
    "lon": 29.081062
  },
  {
    "id": "migros-2189",
    "name": "Optimum Mmm Migros",
    "market": "migros",
    "lat": 40.988865,
    "lon": 29.085724
  },
  {
    "id": "tarim_kredi-6998",
    "name": "Istanbul Ataşehir Yenisahra",
    "market": "tarim_kredi",
    "lat": 40.99153,
    "lon": 29.09084
  },
  {
    "id": "sok-5008",
    "name": "Batanay Caddesi Ataşehir",
    "market": "sok",
    "lat": 40.994522,
    "lon": 29.085835
  },
  {
    "id": "a101-E204",
    "name": "Cahar Dudayev Ataşehir Istanbul",
    "market": "a101",
    "lat": 40.99556,
    "lon": 29.0855
  },
  {
    "id": "bim-G622",
    "name": "Örnek  Ataşehir",
    "market": "bim",
    "lat": 40.99592,
    "lon": 29.086046
  },
  {
    "id": "a101-6908",
    "name": "Beyazıt Ataşehir Istanbul",
    "market": "a101",
    "lat": 40.993813,
    "lon": 29.09065
  },
  {
    "id": "bim-U850",
    "name": "Melikşah  Ataşehir",
    "market": "bim",
    "lat": 40.99657,
    "lon": 29.087856
  },
  {
    "id": "sok-165",
    "name": "Fatih Cad Yenisahra",
    "market": "sok",
    "lat": 40.990177,
    "lon": 29.090294
  },
  {
    "id": "a101-C255",
    "name": "Dakik Ataşehir Istanbul",
    "market": "a101",
    "lat": 40.997326,
    "lon": 29.087395
  },
  {
    "id": "bim-O086",
    "name": "Duruataşehir",
    "market": "bim",
    "lat": 40.998276,
    "lon": 29.0854
  },
  {
    "id": "migros-3939",
    "name": "Mjet Sahrayıcedit Istanbul",
    "market": "migros",
    "lat": 40.984875,
    "lon": 29.088455
  },
  {
    "id": "sok-4165",
    "name": "Şok Mini  Birlik2",
    "market": "sok",
    "lat": 40.9933,
    "lon": 29.0928
  },
  {
    "id": "a101-4254",
    "name": "Yenisahra Ataşehir Istanbul",
    "market": "a101",
    "lat": 40.989418,
    "lon": 29.09058
  },
  {
    "id": "a101-4121",
    "name": "Barbaros Ataşehir Istanbul",
    "market": "a101",
    "lat": 40.992916,
    "lon": 29.098213
  },
  {
    "id": "a101-4140",
    "name": "Dereyolu Ataşehir Istanbul",
    "market": "a101",
    "lat": 40.997635,
    "lon": 29.088812
  },
  {
    "id": "bim-7416",
    "name": "Yeni Emlak  Ataşehir",
    "market": "bim",
    "lat": 40.998,
    "lon": 29.090559
  },
  {
    "id": "bim-5854",
    "name": "Yeni Sahra  Ataşehir",
    "market": "bim",
    "lat": 40.9867,
    "lon": 29.089066
  },
  {
    "id": "bim-P731",
    "name": "Barbaros ataşehir",
    "market": "bim",
    "lat": 40.99286,
    "lon": 29.099558
  },
  {
    "id": "migros-5136",
    "name": "Water Garden Avm Istanbul Mm",
    "market": "migros",
    "lat": 40.99717,
    "lon": 29.098097
  },
  {
    "id": "sok-4711",
    "name": "Şok Minitamer Yeni",
    "market": "sok",
    "lat": 41.004795,
    "lon": 29.0
  },
  {
    "id": "a101-5373",
    "name": "Nautilus Kadıköy Istanbul",
    "market": "a101",
    "lat": 41.000526,
    "lon": 29.03384
  },
  {
    "id": "bim-V365",
    "name": "Acıbadem kadıköy",
    "market": "bim",
    "lat": 40.99795,
    "lon": 29.0369
  },
  {
    "id": "migros-2971",
    "name": "Acıbadem M Mıgros",
    "market": "migros",
    "lat": 41.001034,
    "lon": 29.037458
  },
  {
    "id": "bim-8494",
    "name": "Garanti  Kadıköy",
    "market": "bim",
    "lat": 40.999214,
    "lon": 29.038828
  },
  {
    "id": "sok-2377",
    "name": "Zeamet Acıbadem",
    "market": "sok",
    "lat": 41.001225,
    "lon": 29.04154
  },
  {
    "id": "a101-J206",
    "name": "Zeamet Kadıköy Istanbul",
    "market": "a101",
    "lat": 41.001404,
    "lon": 29.041218
  },
  {
    "id": "bim-D292",
    "name": "Metro  Kadıköy",
    "market": "bim",
    "lat": 41.002037,
    "lon": 29.041946
  },
  {
    "id": "a101-E421",
    "name": "Acıbadem Kadıköy Istanbul",
    "market": "a101",
    "lat": 41.003017,
    "lon": 29.043102
  },
  {
    "id": "sok-7256",
    "name": "Osmaniye Mhacıbadem",
    "market": "sok",
    "lat": 41.0035,
    "lon": 29.0441
  },
  {
    "id": "bim-G187",
    "name": "Cami Altıüsküdar",
    "market": "bim",
    "lat": 41.002815,
    "lon": 29.049051
  },
  {
    "id": "bim-K435",
    "name": "Metro üsküdar",
    "market": "bim",
    "lat": 41.00009,
    "lon": 29.062668
  },
  {
    "id": "a101-H243",
    "name": "Kıvılcım Üsküdar Istanbul",
    "market": "a101",
    "lat": 41.00191,
    "lon": 29.062416
  },
  {
    "id": "a101-4211",
    "name": "Özlem Üsküdar Istanbul",
    "market": "a101",
    "lat": 41.00105,
    "lon": 29.064075
  },
  {
    "id": "sok-6367",
    "name": "Ünalan Ismetpaşa Cad",
    "market": "sok",
    "lat": 41.002583,
    "lon": 29.063267
  },
  {
    "id": "bim-T142",
    "name": "Varoluskudar",
    "market": "bim",
    "lat": 41.000626,
    "lon": 29.067478
  },
  {
    "id": "a101-9766",
    "name": "Tanrıkorur Cad Üsküdar Istanbul",
    "market": "a101",
    "lat": 41.00392,
    "lon": 29.06292
  },
  {
    "id": "bim-1716",
    "name": "Ünalanüsküdar",
    "market": "bim",
    "lat": 41.00218,
    "lon": 29.06828
  },
  {
    "id": "sok-10419",
    "name": "Üsküdar Yunus Bey",
    "market": "sok",
    "lat": 41.002888,
    "lon": 29.069103
  },
  {
    "id": "migros-5081",
    "name": "Emaar Istanbul Mmm Migros",
    "market": "migros",
    "lat": 41.00266,
    "lon": 29.070395
  },
  {
    "id": "a101-B121",
    "name": "Maslak Ünalan Üsküdar Istanbul",
    "market": "a101",
    "lat": 41.00302,
    "lon": 29.066456
  },
  {
    "id": "a101-I368",
    "name": "Emar Üsküdar Istanbul",
    "market": "a101",
    "lat": 41.00312,
    "lon": 29.069502
  },
  {
    "id": "tarim_kredi-5057",
    "name": "Istanbul Libadiye Market",
    "market": "tarim_kredi",
    "lat": 41.00702,
    "lon": 29.0708
  },
  {
    "id": "bim-J326",
    "name": "Karamanfetihataşehir",
    "market": "bim",
    "lat": 41.002647,
    "lon": 29.0757
  },
  {
    "id": "a101-H842",
    "name": "Çiftlik Ataşehir Istanbul",
    "market": "a101",
    "lat": 41.003094,
    "lon": 29.07488
  },
  {
    "id": "sok-7039",
    "name": "Karaman Çiftlik Yolu Bulg",
    "market": "sok",
    "lat": 41.003124,
    "lon": 29.074762
  },
  {
    "id": "sok-3871",
    "name": "Ataşehir Bağımsızlık Bulv",
    "market": "sok",
    "lat": 41.00201,
    "lon": 29.077967
  },
  {
    "id": "tarim_kredi-7498",
    "name": "Istanbul Ataşehir Bağımsızlık",
    "market": "tarim_kredi",
    "lat": 41.00383,
    "lon": 29.07661
  },
  {
    "id": "sok-8971",
    "name": "Ataşehir Yunus Emre Cad",
    "market": "sok",
    "lat": 40.99828,
    "lon": 29.080454
  },
  {
    "id": "a101-9780",
    "name": "Bilgili Ataşehir Istanbul",
    "market": "a101",
    "lat": 41.001225,
    "lon": 29.078571
  },
  {
    "id": "sok-1607",
    "name": "Esatpaşa Şehitler",
    "market": "sok",
    "lat": 41.00082,
    "lon": 29.083454
  },
  {
    "id": "bim-G630",
    "name": "Adnan Menderes  Ataşehir",
    "market": "bim",
    "lat": 41.00246,
    "lon": 29.080809
  },
  {
    "id": "tarim_kredi-7076",
    "name": "Istanbul Ataşehir Ziyapaşa",
    "market": "tarim_kredi",
    "lat": 41.0051,
    "lon": 29.08667
  },
  {
    "id": "bim-J614",
    "name": "Ziyapaşa  Ataşehir",
    "market": "bim",
    "lat": 41.0009,
    "lon": 29.084873
  },
  {
    "id": "bim-Q051",
    "name": "Latife Hanım ataşehir",
    "market": "bim",
    "lat": 40.99976,
    "lon": 29.088116
  },
  {
    "id": "a101-F050",
    "name": "Erdoğan Ataşehir Istanbul",
    "market": "a101",
    "lat": 41.00061,
    "lon": 29.088282
  },
  {
    "id": "sok-10394",
    "name": "Ataşehir Hacı Bekir",
    "market": "sok",
    "lat": 41.00225,
    "lon": 29.087389
  },
  {
    "id": "sok-11826",
    "name": "Ataşehir Ömer Halis",
    "market": "sok",
    "lat": 41.00078,
    "lon": 29.091427
  },
  {
    "id": "a101-4112",
    "name": "Aşık Veysel Ataşehir Istanbul",
    "market": "a101",
    "lat": 41.001167,
    "lon": 29.091541
  },
  {
    "id": "sok-4159",
    "name": "Şok Minimetin",
    "market": "sok",
    "lat": 41.001022,
    "lon": 29.095016
  },
  {
    "id": "bim-5796",
    "name": "Mustafa Kemal  Ataşehir",
    "market": "bim",
    "lat": 41.00231,
    "lon": 29.092487
  },
  {
    "id": "sok-13547",
    "name": "Ataşehir Çeşmeci Sok",
    "market": "sok",
    "lat": 40.9978,
    "lon": 29.0976
  },
  {
    "id": "carrefour-2050",
    "name": "Istanbul Ataşehır Batı Ataşehı",
    "market": "carrefour",
    "lat": 40.9986,
    "lon": 29.101425
  },
  {
    "id": "a101-B317",
    "name": "Çiçekçi Üsküdar Istanbul",
    "market": "a101",
    "lat": 41.011784,
    "lon": 29.014353
  },
  {
    "id": "migros-1991",
    "name": "Çiçekçi M Migros",
    "market": "migros",
    "lat": 41.01184,
    "lon": 29.01442
  },
  {
    "id": "bim-5712",
    "name": "Çiçekçi  Üsküdar",
    "market": "bim",
    "lat": 41.012028,
    "lon": 29.014355
  },
  {
    "id": "sok-1017",
    "name": "Selimiye",
    "market": "sok",
    "lat": 41.010906,
    "lon": 29.01797
  },
  {
    "id": "bim-4842",
    "name": "Selimiye  Üsküdar",
    "market": "bim",
    "lat": 41.010345,
    "lon": 29.018967
  },
  {
    "id": "a101-5407",
    "name": "Selimiye Üsküdar Istanbul",
    "market": "a101",
    "lat": 41.011543,
    "lon": 29.018427
  },
  {
    "id": "sok-7017",
    "name": "Iskele Cdüsküdar",
    "market": "sok",
    "lat": 41.01316,
    "lon": 29.01688
  },
  {
    "id": "a101-E592",
    "name": "Simge Kadıköy Istanbul",
    "market": "a101",
    "lat": 41.006004,
    "lon": 29.033028
  },
  {
    "id": "sok-7258",
    "name": "Huzur Koşuyolu",
    "market": "sok",
    "lat": 41.006016,
    "lon": 29.033176
  },
  {
    "id": "bim-7959",
    "name": "Tabaklar  Üsküdar",
    "market": "bim",
    "lat": 41.013374,
    "lon": 29.022858
  },
  {
    "id": "bim-G186",
    "name": "Koşuyoluüsküdar",
    "market": "bim",
    "lat": 41.010727,
    "lon": 29.034866
  },
  {
    "id": "carrefour-5344",
    "name": "Istanbul Kadıköy Koşuyolu Mını",
    "market": "carrefour",
    "lat": 41.00966,
    "lon": 29.036873
  },
  {
    "id": "a101-B399",
    "name": "Gömeç Kadıköy Istanbul",
    "market": "a101",
    "lat": 41.005096,
    "lon": 29.040438
  },
  {
    "id": "sok-7199",
    "name": "Maraton Koşuyolu",
    "market": "sok",
    "lat": 41.011272,
    "lon": 29.038546
  },
  {
    "id": "sok-1194",
    "name": "Koşuyolu Park",
    "market": "sok",
    "lat": 41.0096,
    "lon": 29.0414
  },
  {
    "id": "migros-3120",
    "name": "Koşuyolu M Migros",
    "market": "migros",
    "lat": 41.01028,
    "lon": 29.04153
  },
  {
    "id": "bim-G293",
    "name": "Adilesultankadıkoy",
    "market": "bim",
    "lat": 41.01143,
    "lon": 29.038548
  },
  {
    "id": "migros-3929",
    "name": "Mjet Koşuyolu Istanbul",
    "market": "migros",
    "lat": 41.01191,
    "lon": 29.038376
  },
  {
    "id": "bim-G188",
    "name": "Okulüsküdar",
    "market": "bim",
    "lat": 41.00976,
    "lon": 29.047186
  },
  {
    "id": "migros-8690",
    "name": "Acıbadem Konakları Istanbul M",
    "market": "migros",
    "lat": 41.010353,
    "lon": 29.047598
  },
  {
    "id": "migros-3052",
    "name": "Mjet Acıbadem",
    "market": "migros",
    "lat": 41.009094,
    "lon": 29.050798
  },
  {
    "id": "tarim_kredi-7556",
    "name": "Istanbul Üsküdar Acıbadem",
    "market": "tarim_kredi",
    "lat": 41.01143,
    "lon": 29.04881
  },
  {
    "id": "a101-9504",
    "name": "Akasya Üsküdar Istanbul",
    "market": "a101",
    "lat": 41.008156,
    "lon": 29.052149
  },
  {
    "id": "bim-G185",
    "name": "Nişantaşıüsküdar",
    "market": "bim",
    "lat": 41.011726,
    "lon": 29.053127
  },
  {
    "id": "sok-3013",
    "name": "Acıbadem Konaklar",
    "market": "sok",
    "lat": 41.012413,
    "lon": 29.053228
  },
  {
    "id": "a101-4125",
    "name": "Bestekar Üsküdar Istanbul",
    "market": "a101",
    "lat": 41.00491,
    "lon": 29.064356
  },
  {
    "id": "sok-3967",
    "name": "Üsküdar Üçpınarlar Cad",
    "market": "sok",
    "lat": 41.008522,
    "lon": 29.065498
  },
  {
    "id": "bim-7958",
    "name": "Küçük Çamlıca  Üsküdar",
    "market": "bim",
    "lat": 41.00818,
    "lon": 29.065811
  },
  {
    "id": "bim-Q606",
    "name": "Fetihataşehir",
    "market": "bim",
    "lat": 41.003525,
    "lon": 29.076853
  },
  {
    "id": "a101-4194",
    "name": "Libadiye Üsküdar Istanbul",
    "market": "a101",
    "lat": 41.008175,
    "lon": 29.07392
  },
  {
    "id": "a101-0021",
    "name": "Kemalpaşa Ataşehir Istanbul",
    "market": "a101",
    "lat": 41.002552,
    "lon": 29.077528
  },
  {
    "id": "bim-Q857",
    "name": "Fundaataşehir",
    "market": "bim",
    "lat": 41.00378,
    "lon": 29.078297
  },
  {
    "id": "sok-4240",
    "name": "Şok Minimesecık",
    "market": "sok",
    "lat": 41.00794,
    "lon": 29.076874
  },
  {
    "id": "sok-6076",
    "name": "Libadiye Dsi",
    "market": "sok",
    "lat": 41.009186,
    "lon": 29.074373
  },
  {
    "id": "bim-O087",
    "name": "Çınarüsküdar",
    "market": "bim",
    "lat": 41.008755,
    "lon": 29.076664
  },
  {
    "id": "migros-4992",
    "name": "Mjet Üsküdar Libadiye",
    "market": "migros",
    "lat": 41.013264,
    "lon": 29.074835
  },
  {
    "id": "sok-4158",
    "name": "Şok Minikalebaşı",
    "market": "sok",
    "lat": 41.00572,
    "lon": 29.08023
  },
  {
    "id": "sok-8649",
    "name": "Adnan Menderes",
    "market": "sok",
    "lat": 41.004326,
    "lon": 29.082272
  },
  {
    "id": "bim-U120",
    "name": "Taşkın  Ataşehir",
    "market": "bim",
    "lat": 41.004814,
    "lon": 29.082392
  },
  {
    "id": "a101-F935",
    "name": "Adnan Menderes Ataşehir Istanbul",
    "market": "a101",
    "lat": 41.002262,
    "lon": 29.080383
  },
  {
    "id": "sok-911",
    "name": "General Tahsin Yazıcı",
    "market": "sok",
    "lat": 41.006905,
    "lon": 29.081354
  },
  {
    "id": "bim-G627",
    "name": "Tahsin Yazıcı  Ataşehir",
    "market": "bim",
    "lat": 41.007004,
    "lon": 29.081417
  },
  {
    "id": "a101-4175",
    "name": "Karlıdere Üsküdar Istanbul",
    "market": "a101",
    "lat": 41.00942,
    "lon": 29.08007
  },
  {
    "id": "carrefour-5159",
    "name": "Istanbul Üsküdar Esatpaşa Mını",
    "market": "carrefour",
    "lat": 41.01162,
    "lon": 29.08293
  },
  {
    "id": "a101-0448",
    "name": "Ziyapaşa Ataşehir Istanbul",
    "market": "a101",
    "lat": 41.00513,
    "lon": 29.086351
  },
  {
    "id": "sok-5903",
    "name": "Ziyapaşa Caddesi Ümraniye",
    "market": "sok",
    "lat": 41.005314,
    "lon": 29.086224
  },
  {
    "id": "bim-G625",
    "name": "Esatpaşa  Ataşehir",
    "market": "bim",
    "lat": 41.00674,
    "lon": 29.085226
  },
  {
    "id": "bim-H109",
    "name": "Efsane  Ataşehir",
    "market": "bim",
    "lat": 41.003967,
    "lon": 29.088495
  },
  {
    "id": "a101-9813",
    "name": "Sondurak Ataşehir Istanbul",
    "market": "a101",
    "lat": 41.00741,
    "lon": 29.085396
  },
  {
    "id": "a101-K088",
    "name": "Dost Ataşehir Istanbul",
    "market": "a101",
    "lat": 41.00667,
    "lon": 29.088392
  },
  {
    "id": "sok-2331",
    "name": "Mustafa Paşa Esatpaşa",
    "market": "sok",
    "lat": 41.00631,
    "lon": 29.090523
  },
  {
    "id": "a101-5164",
    "name": "Japonevleri Ataşehir Istanbul",
    "market": "a101",
    "lat": 41.00755,
    "lon": 29.09215
  },
  {
    "id": "sok-10120",
    "name": "Ataşehir Mustafa Kemal",
    "market": "sok",
    "lat": 41.005585,
    "lon": 29.095499
  },
  {
    "id": "bim-7276",
    "name": "Geçit  Ataşehir",
    "market": "bim",
    "lat": 41.006527,
    "lon": 29.097198
  },
  {
    "id": "migros-4479",
    "name": "Mjet Üsküdar Paşakapısı",
    "market": "migros",
    "lat": 41.01592,
    "lon": 29.01532
  },
  {
    "id": "a101-4269",
    "name": "Tunusbağı Üsküdar",
    "market": "a101",
    "lat": 41.016037,
    "lon": 29.015345
  },
  {
    "id": "bim-8365",
    "name": "Doğancılar  Üsküdar",
    "market": "bim",
    "lat": 41.01854,
    "lon": 29.011726
  },
  {
    "id": "carrefour-5254",
    "name": "Istanbul Üsküdar Salacak Mını",
    "market": "carrefour",
    "lat": 41.018646,
    "lon": 29.011852
  },
  {
    "id": "sok-1432",
    "name": "Paşakapısı",
    "market": "sok",
    "lat": 41.017906,
    "lon": 29.014198
  },
  {
    "id": "bim-P995",
    "name": "Salacaküsküdar",
    "market": "bim",
    "lat": 41.01939,
    "lon": 29.011383
  },
  {
    "id": "sok-4371",
    "name": "Şok Minidıvıtcılar",
    "market": "sok",
    "lat": 41.015366,
    "lon": 29.023033
  },
  {
    "id": "sok-5182",
    "name": "Kasımağa Sokak Üsküdar",
    "market": "sok",
    "lat": 41.017242,
    "lon": 29.02455
  },
  {
    "id": "bim-A395",
    "name": "Zeynep Kamil  Üsküdar",
    "market": "bim",
    "lat": 41.017433,
    "lon": 29.024912
  },
  {
    "id": "bim-K265",
    "name": "Belediye  Üsküdar",
    "market": "bim",
    "lat": 41.019016,
    "lon": 29.01977
  },
  {
    "id": "a101-7905",
    "name": "Kasımağa Üsküdar",
    "market": "a101",
    "lat": 41.01765,
    "lon": 29.025324
  },
  {
    "id": "migros-4760",
    "name": "Mjet Üsküdar Nuhkuyusu",
    "market": "migros",
    "lat": 41.016132,
    "lon": 29.029716
  },
  {
    "id": "sok-641",
    "name": "Zeynep Kamil Mağazası",
    "market": "sok",
    "lat": 41.017223,
    "lon": 29.026783
  },
  {
    "id": "bim-G189",
    "name": "Barbarosüsküdar",
    "market": "bim",
    "lat": 41.016155,
    "lon": 29.029934
  },
  {
    "id": "sok-703",
    "name": "Koşuyolu Mağazası",
    "market": "sok",
    "lat": 41.0126,
    "lon": 29.0367
  },
  {
    "id": "a101-E418",
    "name": "Koşuyolu Kadıköy Istanbul",
    "market": "a101",
    "lat": 41.011948,
    "lon": 29.037436
  },
  {
    "id": "a101-C355",
    "name": "Barbaros Üsküdar Istanbul",
    "market": "a101",
    "lat": 41.016853,
    "lon": 29.033758
  },
  {
    "id": "a101-9100",
    "name": "Nuhkuyusu Üsküdar Üs",
    "market": "a101",
    "lat": 41.018707,
    "lon": 29.030107
  },
  {
    "id": "sok-850",
    "name": "Validebağ Mağazası",
    "market": "sok",
    "lat": 41.0149,
    "lon": 29.0419
  },
  {
    "id": "carrefour-5146",
    "name": "Istanbul Altunızade Bayramağa",
    "market": "carrefour",
    "lat": 41.0179,
    "lon": 29.04131
  },
  {
    "id": "a101-F208",
    "name": "Doğancı Üsküdar Istanbul",
    "market": "a101",
    "lat": 41.012794,
    "lon": 29.054115
  },
  {
    "id": "migros-9099",
    "name": "Acıbadem Cd Nişantaşı Ist M",
    "market": "migros",
    "lat": 41.014004,
    "lon": 29.054865
  },
  {
    "id": "sok-2345",
    "name": "Acıbadem Nişantaşı",
    "market": "sok",
    "lat": 41.014175,
    "lon": 29.055056
  },
  {
    "id": "bim-2015",
    "name": "Libadiye  Üsküdar",
    "market": "bim",
    "lat": 41.010185,
    "lon": 29.074461
  },
  {
    "id": "bim-U121",
    "name": "Obak  Üsküdar",
    "market": "bim",
    "lat": 41.012653,
    "lon": 29.075283
  },
  {
    "id": "sok-541",
    "name": "Mehtap Libadiye",
    "market": "sok",
    "lat": 41.012897,
    "lon": 29.07531
  },
  {
    "id": "a101-4190",
    "name": "Küçük Çamlıca Üsküdar Istanbul",
    "market": "a101",
    "lat": 41.017303,
    "lon": 29.07231
  },
  {
    "id": "sok-6017",
    "name": "Bulgurlu",
    "market": "sok",
    "lat": 41.01718,
    "lon": 29.07263
  },
  {
    "id": "bim-4904",
    "name": "Karlıdere  Üsküdar",
    "market": "bim",
    "lat": 41.012043,
    "lon": 29.078176
  },
  {
    "id": "sok-13005",
    "name": "Üsküdar Ercan Sokak",
    "market": "sok",
    "lat": 41.009735,
    "lon": 29.078352
  },
  {
    "id": "a101-9777",
    "name": "Harbiye Üsküdar Istanbul",
    "market": "a101",
    "lat": 41.012775,
    "lon": 29.079002
  },
  {
    "id": "sok-301",
    "name": "Üsküdar Harbiye Sokak",
    "market": "sok",
    "lat": 41.013165,
    "lon": 29.079062
  },
  {
    "id": "sok-6087",
    "name": "Karlıdere",
    "market": "sok",
    "lat": 41.008827,
    "lon": 29.080183
  },
  {
    "id": "sok-13697",
    "name": "Üsküdar Esatpaşa",
    "market": "sok",
    "lat": 41.012,
    "lon": 29.0826
  },
  {
    "id": "a101-4131",
    "name": "Cumhuriyet Üsküdar Istanbul",
    "market": "a101",
    "lat": 41.010353,
    "lon": 29.084156
  },
  {
    "id": "a101-C857",
    "name": "Bağlariçi Üsküdar Istanbul",
    "market": "a101",
    "lat": 41.012993,
    "lon": 29.084064
  },
  {
    "id": "tarim_kredi-5358",
    "name": "Istanbul Ümraniye Esenevler",
    "market": "tarim_kredi",
    "lat": 41.01524,
    "lon": 29.08726
  },
  {
    "id": "bim-8366",
    "name": "Sancak  Üsküdar",
    "market": "bim",
    "lat": 41.010674,
    "lon": 29.085478
  },
  {
    "id": "sok-6121",
    "name": "Esatpaşa Cadde",
    "market": "sok",
    "lat": 41.013004,
    "lon": 29.082188
  },
  {
    "id": "a101-9323",
    "name": "Cengiz Topel Ümraniye Istanbul",
    "market": "a101",
    "lat": 41.01075,
    "lon": 29.08946
  },
  {
    "id": "sok-7055",
    "name": "Santral Ümraniye",
    "market": "sok",
    "lat": 41.01423,
    "lon": 29.084328
  },
  {
    "id": "bim-2564",
    "name": "Söğütlüçayır  Üsküdar",
    "market": "bim",
    "lat": 41.01423,
    "lon": 29.083105
  },
  {
    "id": "a101-F816",
    "name": "Dadaş Ümraniye Istanbul",
    "market": "a101",
    "lat": 41.014,
    "lon": 29.087677
  },
  {
    "id": "bim-6797",
    "name": "Yeni Kültür  Ümraniye",
    "market": "bim",
    "lat": 41.013046,
    "lon": 29.090897
  },
  {
    "id": "a101-J562",
    "name": "Kocatepe Ümraniye Istanbul",
    "market": "a101",
    "lat": 41.012184,
    "lon": 29.090506
  },
  {
    "id": "a101-0443",
    "name": "Nişancı Esenevler Ümraniye Istanbul",
    "market": "a101",
    "lat": 41.011314,
    "lon": 29.09306
  },
  {
    "id": "bim-H615",
    "name": "Nişancı  Ümraniye",
    "market": "bim",
    "lat": 41.011883,
    "lon": 29.09322
  },
  {
    "id": "sok-6396",
    "name": "Ümraniye Cengiz Topel",
    "market": "sok",
    "lat": 41.012573,
    "lon": 29.094349
  },
  {
    "id": "bim-P943",
    "name": "Gülbahçe ümraniye",
    "market": "bim",
    "lat": 41.01097,
    "lon": 29.096369
  },
  {
    "id": "a101-4149",
    "name": "Esenevler Ümraniye  Istanbul",
    "market": "a101",
    "lat": 41.01355,
    "lon": 29.095083
  },
  {
    "id": "bim-R233",
    "name": "Vezir ümraniye",
    "market": "bim",
    "lat": 41.015125,
    "lon": 29.091951
  },
  {
    "id": "sok-609",
    "name": "Ümraniye Turkuaz Sokak",
    "market": "sok",
    "lat": 41.01506,
    "lon": 29.095526
  },
  {
    "id": "sok-13640",
    "name": "Ümraniye 3001cad",
    "market": "sok",
    "lat": 41.0087,
    "lon": 29.0982
  },
  {
    "id": "sok-6411",
    "name": "Talatpaşa Derya",
    "market": "sok",
    "lat": 41.01656,
    "lon": 29.092075
  },
  {
    "id": "sok-882",
    "name": "Şemsipaşa Mağazası",
    "market": "sok",
    "lat": 41.02232,
    "lon": 29.01138
  },
  {
    "id": "sok-728",
    "name": "Doğancılar Mağazası",
    "market": "sok",
    "lat": 41.020027,
    "lon": 29.014475
  },
  {
    "id": "migros-3573",
    "name": "Mjet Üsküdar Şemsipaşa",
    "market": "migros",
    "lat": 41.023544,
    "lon": 29.01189
  },
  {
    "id": "sok-7026",
    "name": "Uncular Magazası",
    "market": "sok",
    "lat": 41.02388,
    "lon": 29.011963
  },
  {
    "id": "a101-F113",
    "name": "Ahmediye Üsküdar Istanbul",
    "market": "a101",
    "lat": 41.02148,
    "lon": 29.016232
  },
  {
    "id": "sok-12401",
    "name": "Üsküdar Merkez",
    "market": "sok",
    "lat": 41.020344,
    "lon": 29.017479
  },
  {
    "id": "bim-1630",
    "name": "Üsküdar  Istanbul",
    "market": "bim",
    "lat": 41.02135,
    "lon": 29.01669
  },
  {
    "id": "migros-6306",
    "name": "Nev Çarşı Istanbul Mm Migros",
    "market": "migros",
    "lat": 41.02085,
    "lon": 29.019056
  },
  {
    "id": "a101-4135",
    "name": "Çavuşdere Üsküdar Istanbul",
    "market": "a101",
    "lat": 41.019875,
    "lon": 29.02122
  },
  {
    "id": "migros-7025",
    "name": "Mjet Üsküdar Meydan Metro",
    "market": "migros",
    "lat": 41.02552,
    "lon": 29.013662
  },
  {
    "id": "sok-7027",
    "name": "Toptaşı",
    "market": "sok",
    "lat": 41.018826,
    "lon": 29.019672
  },
  {
    "id": "sok-10323",
    "name": "Üsküdar Çavuşdere Cad",
    "market": "sok",
    "lat": 41.019833,
    "lon": 29.026617
  },
  {
    "id": "a101-D440",
    "name": "Muratreis Üsküdar Istanbul",
    "market": "a101",
    "lat": 41.020615,
    "lon": 29.024046
  },
  {
    "id": "a101-8236",
    "name": "Çinili Üsküdar Istanbul",
    "market": "a101",
    "lat": 41.02015,
    "lon": 29.02979
  },
  {
    "id": "bim-5421",
    "name": "Muratreis  Üsküdar",
    "market": "bim",
    "lat": 41.020607,
    "lon": 29.030878
  },
  {
    "id": "migros-8434",
    "name": "Mjet Gazi Cd Üsküdar Istanbul",
    "market": "migros",
    "lat": 41.02336,
    "lon": 29.028091
  },
  {
    "id": "carrefour-5438",
    "name": "Üsküdar Nuhkuyusu Cad",
    "market": "carrefour",
    "lat": 41.019947,
    "lon": 29.033747
  },
  {
    "id": "sok-7029",
    "name": "Altunızade",
    "market": "sok",
    "lat": 41.01813,
    "lon": 29.035055
  },
  {
    "id": "sok-7054",
    "name": "Yenimahalle Üsküdar",
    "market": "sok",
    "lat": 41.020496,
    "lon": 29.030424
  },
  {
    "id": "sok-7049",
    "name": "Pazarbaşı Üsküdar",
    "market": "sok",
    "lat": 41.020424,
    "lon": 29.033796
  },
  {
    "id": "bim-1379",
    "name": "Pazarbaşıüsküdar",
    "market": "bim",
    "lat": 41.020615,
    "lon": 29.034027
  },
  {
    "id": "migros-298",
    "name": "Capıtol Mağazası",
    "market": "migros",
    "lat": 41.02086,
    "lon": 29.0401
  },
  {
    "id": "sok-11487",
    "name": "Üsküdar Nuh Kuyusu Cad",
    "market": "sok",
    "lat": 41.020813,
    "lon": 29.03547
  },
  {
    "id": "a101-K018",
    "name": "Yeni Bağlarbaşı Üsküdar Istanbul",
    "market": "a101",
    "lat": 41.02385,
    "lon": 29.03607
  },
  {
    "id": "bim-O551",
    "name": "Bağlarbaşıüsküdar",
    "market": "bim",
    "lat": 41.024452,
    "lon": 29.037642
  },
  {
    "id": "tarim_kredi-3010",
    "name": "Istanbul Kısıklı",
    "market": "tarim_kredi",
    "lat": 41.02223,
    "lon": 29.0617
  },
  {
    "id": "sok-3412",
    "name": "Üsküdar Yunus Emre Sok",
    "market": "sok",
    "lat": 41.024902,
    "lon": 29.055635
  },
  {
    "id": "a101-4129",
    "name": "Burhaniye Üsküdar Istanbul",
    "market": "a101",
    "lat": 41.025333,
    "lon": 29.05625
  },
  {
    "id": "sok-4658",
    "name": "Şok Minimücevher",
    "market": "sok",
    "lat": 41.021576,
    "lon": 29.069223
  },
  {
    "id": "sok-4657",
    "name": "Şokminidilşat",
    "market": "sok",
    "lat": 41.021576,
    "lon": 29.069223
  },
  {
    "id": "sok-4656",
    "name": "Şok Miniayaz",
    "market": "sok",
    "lat": 41.021576,
    "lon": 29.069223
  },
  {
    "id": "bim-6404",
    "name": "Nurbaba  Üsküdar",
    "market": "bim",
    "lat": 41.025658,
    "lon": 29.05982
  },
  {
    "id": "sok-4659",
    "name": "Şok Miniormanlı",
    "market": "sok",
    "lat": 41.021576,
    "lon": 29.069223
  },
  {
    "id": "a101-C978",
    "name": "Yeni Bulgurlu Üsküdar Istanbul",
    "market": "a101",
    "lat": 41.019077,
    "lon": 29.075386
  },
  {
    "id": "bim-8224",
    "name": "Sevgi  Üsküdar",
    "market": "bim",
    "lat": 41.019245,
    "lon": 29.075968
  },
  {
    "id": "bim-2398",
    "name": "Bulgurluüsküdar",
    "market": "bim",
    "lat": 41.016228,
    "lon": 29.078384
  },
  {
    "id": "sok-7051",
    "name": "Bağcılar Bulgurlu",
    "market": "sok",
    "lat": 41.01922,
    "lon": 29.07659
  },
  {
    "id": "sok-6061",
    "name": "Bulgurlu Bağlaryolu",
    "market": "sok",
    "lat": 41.018417,
    "lon": 29.077772
  },
  {
    "id": "sok-7032",
    "name": "Hayrettin Paşa Bulgurlu",
    "market": "sok",
    "lat": 41.015865,
    "lon": 29.07869
  },
  {
    "id": "a101-E293",
    "name": "Hacılar Üsküdar Istanbul",
    "market": "a101",
    "lat": 41.01777,
    "lon": 29.079563
  },
  {
    "id": "bim-5062",
    "name": "Şura  Üsküdar",
    "market": "bim",
    "lat": 41.0177,
    "lon": 29.079853
  },
  {
    "id": "a101-C597",
    "name": "Söğütlü Çayır Üsküdar Istanbul",
    "market": "a101",
    "lat": 41.016205,
    "lon": 29.08232
  },
  {
    "id": "bim-6355",
    "name": "Teletaş  Üsküdar",
    "market": "bim",
    "lat": 41.01899,
    "lon": 29.082426
  },
  {
    "id": "sok-11006",
    "name": "Üsküdar Söğütlü Çayır Cad",
    "market": "sok",
    "lat": 41.01606,
    "lon": 29.084324
  },
  {
    "id": "sok-12560",
    "name": "Ümraniye Dadaş Sokak",
    "market": "sok",
    "lat": 41.018078,
    "lon": 29.085663
  },
  {
    "id": "a101-I393",
    "name": "Eyüboğlu Ümraniye Istanbul",
    "market": "a101",
    "lat": 41.01588,
    "lon": 29.08784
  },
  {
    "id": "bim-7970",
    "name": "Esenevler  Ümraniye",
    "market": "bim",
    "lat": 41.015507,
    "lon": 29.088484
  },
  {
    "id": "bim-R235",
    "name": "Talatpaşa ümraniye",
    "market": "bim",
    "lat": 41.01782,
    "lon": 29.089039
  },
  {
    "id": "a101-D539",
    "name": "Talatpaşa Ümraniye Istanbul",
    "market": "a101",
    "lat": 41.017685,
    "lon": 29.0905
  },
  {
    "id": "sok-4505",
    "name": "Şok Miniilknur",
    "market": "sok",
    "lat": 41.019684,
    "lon": 29.089216
  },
  {
    "id": "bim-U745",
    "name": "Atmaca ümraniye",
    "market": "bim",
    "lat": 41.015976,
    "lon": 29.091543
  },
  {
    "id": "sok-5875",
    "name": "Namık Kemal Ümraniye",
    "market": "sok",
    "lat": 41.01887,
    "lon": 29.09277
  },
  {
    "id": "a101-4205",
    "name": "Namık Kemal Ümraniye Istanbul",
    "market": "a101",
    "lat": 41.0197,
    "lon": 29.09223
  },
  {
    "id": "bim-5824",
    "name": "Cengiz Topel  Ümraniye",
    "market": "bim",
    "lat": 41.016266,
    "lon": 29.095154
  },
  {
    "id": "a101-D120",
    "name": "Dörtyol Ümraniye Istanbul",
    "market": "a101",
    "lat": 41.01582,
    "lon": 29.095846
  },
  {
    "id": "migros-7022",
    "name": "Mjet Üsküdar Kız Kulesi Metro",
    "market": "migros",
    "lat": 41.025482,
    "lon": 29.014837
  },
  {
    "id": "migros-213",
    "name": "Üsküdar Mağazası",
    "market": "migros",
    "lat": 41.02589,
    "lon": 29.01652
  },
  {
    "id": "bim-1653",
    "name": "Çarşıüsküdar",
    "market": "bim",
    "lat": 41.025043,
    "lon": 29.016916
  },
  {
    "id": "a101-B665",
    "name": "Mimar Sinan Üsküdar Istanbul",
    "market": "a101",
    "lat": 41.023308,
    "lon": 29.018105
  },
  {
    "id": "a101-B207",
    "name": "Üniversite Üsküdar Istanbul",
    "market": "a101",
    "lat": 41.0248,
    "lon": 29.019974
  },
  {
    "id": "sok-7033",
    "name": "Üsküdar Çarşı",
    "market": "sok",
    "lat": 41.025604,
    "lon": 29.020828
  },
  {
    "id": "a101-E074",
    "name": "Hazan Üsküdar Istanbul",
    "market": "a101",
    "lat": 41.023285,
    "lon": 29.024189
  },
  {
    "id": "bim-1090",
    "name": "Hacı Hesnaüsküdar",
    "market": "bim",
    "lat": 41.026443,
    "lon": 29.022148
  },
  {
    "id": "sok-11899",
    "name": "Üsküdar Selami Ali",
    "market": "sok",
    "lat": 41.02477,
    "lon": 29.02636
  },
  {
    "id": "sok-8065",
    "name": "Üsküdar Murat Reis Mah",
    "market": "sok",
    "lat": 41.023373,
    "lon": 29.027885
  },
  {
    "id": "a101-I473",
    "name": "Çevikkuvvet Üsküdar Istanbul",
    "market": "a101",
    "lat": 41.023624,
    "lon": 29.027792
  },
  {
    "id": "bim-2741",
    "name": "Selamsızüsküdar",
    "market": "bim",
    "lat": 41.023464,
    "lon": 29.028797
  },
  {
    "id": "sok-13785",
    "name": "Üsküdar Fıstıkağacı",
    "market": "sok",
    "lat": 41.0232,
    "lon": 29.0297
  },
  {
    "id": "bim-T756",
    "name": "Sultantepeüsküdar",
    "market": "bim",
    "lat": 41.027615,
    "lon": 29.025282
  },
  {
    "id": "carrefour-5236",
    "name": "Istanbul Üsküdar Fıstıkağacı M",
    "market": "carrefour",
    "lat": 41.027763,
    "lon": 29.029642
  },
  {
    "id": "a101-B503",
    "name": "Selamiali Üsküdar Istanbul",
    "market": "a101",
    "lat": 41.023895,
    "lon": 29.0311
  },
  {
    "id": "sok-1550",
    "name": "Üsküdar Gazi Caddesi",
    "market": "sok",
    "lat": 41.023838,
    "lon": 29.034424
  },
  {
    "id": "a101-I065",
    "name": "Şehit Halil Ögel Üsküdar Istanbul",
    "market": "a101",
    "lat": 41.02676,
    "lon": 29.03015
  },
  {
    "id": "bim-2103",
    "name": "Fıstıkağacıüsküdar",
    "market": "bim",
    "lat": 41.027565,
    "lon": 29.0317
  },
  {
    "id": "sok-1455",
    "name": "Bağlarbaşı",
    "market": "sok",
    "lat": 41.023537,
    "lon": 29.035282
  },
  {
    "id": "sok-7028",
    "name": "Cumhuriyet Cdbağlarbaşı",
    "market": "sok",
    "lat": 41.025024,
    "lon": 29.03575
  },
  {
    "id": "sok-2960",
    "name": "Bağlarbaşı Icadiye",
    "market": "sok",
    "lat": 41.02502,
    "lon": 29.038378
  },
  {
    "id": "a101-H045",
    "name": "Nakkaştepe Üsküdar Istanbul",
    "market": "a101",
    "lat": 41.02702,
    "lon": 29.039696
  },
  {
    "id": "a101-F240",
    "name": "Turgut Aydın Üsküdar Istanbul",
    "market": "a101",
    "lat": 41.030937,
    "lon": 29.047321
  },
  {
    "id": "sok-11900",
    "name": "Üsküdar Emniyet",
    "market": "sok",
    "lat": 41.02772,
    "lon": 29.053362
  },
  {
    "id": "a101-G732",
    "name": "Fatih Sultan Mehmet Üsküdar Istanbul",
    "market": "a101",
    "lat": 41.02766,
    "lon": 29.054087
  },
  {
    "id": "bim-O470",
    "name": "Emniyetüsküdar",
    "market": "bim",
    "lat": 41.027718,
    "lon": 29.054008
  },
  {
    "id": "sok-13811",
    "name": "Ümraniye Çavuşbaşı Cad",
    "market": "sok",
    "lat": 41.0293,
    "lon": 29.0535
  },
  {
    "id": "a101-D235",
    "name": "Gençlik Üsküdar Istanbul",
    "market": "a101",
    "lat": 41.028015,
    "lon": 29.058184
  },
  {
    "id": "sok-12150",
    "name": "Üsküdar Cihangir Sokak",
    "market": "sok",
    "lat": 41.026337,
    "lon": 29.060513
  },
  {
    "id": "a101-E587",
    "name": "Nizamı Cedit Üsküdar Istanbul",
    "market": "a101",
    "lat": 41.03055,
    "lon": 29.059004
  },
  {
    "id": "sok-4699",
    "name": "Şok Mini Yıldırım",
    "market": "sok",
    "lat": 41.021576,
    "lon": 29.069223
  },
  {
    "id": "a101-4151",
    "name": "Ferah Üsküdar Istanbul",
    "market": "a101",
    "lat": 41.026165,
    "lon": 29.075027
  },
  {
    "id": "sok-9225",
    "name": "Yıldız Holding",
    "market": "sok",
    "lat": 41.023193,
    "lon": 29.071577
  },
  {
    "id": "a101-F863",
    "name": "Kısıklı Üsküdar Istanbul",
    "market": "a101",
    "lat": 41.024204,
    "lon": 29.0805
  },
  {
    "id": "a101-G421",
    "name": "Abdipaşa Üsküdar Istanbul",
    "market": "a101",
    "lat": 41.027966,
    "lon": 29.077019
  },
  {
    "id": "bim-T806",
    "name": "Namazgahüsküdar",
    "market": "bim",
    "lat": 41.022045,
    "lon": 29.081375
  },
  {
    "id": "tarim_kredi-5055",
    "name": "Istanbul Natoyolu Market",
    "market": "tarim_kredi",
    "lat": 41.0296,
    "lon": 29.08068
  },
  {
    "id": "sok-4482",
    "name": "Şok Minisunar",
    "market": "sok",
    "lat": 41.02144,
    "lon": 29.0793
  },
  {
    "id": "a101-F989",
    "name": "Elvankent Üsküdar Istanbul",
    "market": "a101",
    "lat": 41.021793,
    "lon": 29.081152
  },
  {
    "id": "sok-11753",
    "name": "Üsküdar Gümüşsuyu Cami",
    "market": "sok",
    "lat": 41.02576,
    "lon": 29.079384
  },
  {
    "id": "a101-9769",
    "name": "Hacı Arif Üsküdar Istanbul",
    "market": "a101",
    "lat": 41.027206,
    "lon": 29.080112
  },
  {
    "id": "bim-K387",
    "name": "Sütçü Imam ümraniye",
    "market": "bim",
    "lat": 41.02409,
    "lon": 29.087036
  },
  {
    "id": "a101-G658",
    "name": "Igdaş Ümraniye Istanbul",
    "market": "a101",
    "lat": 41.024124,
    "lon": 29.087057
  },
  {
    "id": "a101-C023",
    "name": "Santral Ümraniye Istanbul",
    "market": "a101",
    "lat": 41.025257,
    "lon": 29.086006
  },
  {
    "id": "a101-9752",
    "name": "Sütçü Imam Cad Ümraniye Istanbul",
    "market": "a101",
    "lat": 41.02413,
    "lon": 29.089422
  },
  {
    "id": "sok-3525",
    "name": "Ümraniye Muhtar Sokak",
    "market": "sok",
    "lat": 41.02436,
    "lon": 29.089594
  },
  {
    "id": "bim-5791",
    "name": "Santralümraniye",
    "market": "bim",
    "lat": 41.0265,
    "lon": 29.088379
  },
  {
    "id": "bim-R176",
    "name": "Çilek Sokak ümraniye",
    "market": "bim",
    "lat": 41.02274,
    "lon": 29.091034
  },
  {
    "id": "a101-B372",
    "name": "Çilek Ümraniye Istanbul",
    "market": "a101",
    "lat": 41.023167,
    "lon": 29.091103
  },
  {
    "id": "bim-5785",
    "name": "Namık Kemalümraniye",
    "market": "bim",
    "lat": 41.020298,
    "lon": 29.092272
  },
  {
    "id": "a101-B203",
    "name": "Medine Cami Ümraniye Istanbul",
    "market": "a101",
    "lat": 41.024467,
    "lon": 29.09452
  },
  {
    "id": "a101-9758",
    "name": "Gürbüz Sok Ümraniye Istanbul",
    "market": "a101",
    "lat": 41.02586,
    "lon": 29.092585
  },
  {
    "id": "bim-7043",
    "name": "Çarşı  Ümraniye",
    "market": "bim",
    "lat": 41.023827,
    "lon": 29.095268
  },
  {
    "id": "bim-5790",
    "name": "Marmaraümraniye",
    "market": "bim",
    "lat": 41.02138,
    "lon": 29.096363
  },
  {
    "id": "sok-5904",
    "name": "Marmara Caddesi Ümraniye",
    "market": "sok",
    "lat": 41.02052,
    "lon": 29.096565
  },
  {
    "id": "sok-6408",
    "name": "Istiklal",
    "market": "sok",
    "lat": 41.022972,
    "lon": 29.097616
  },
  {
    "id": "tarim_kredi-5035",
    "name": "Istanbul Ümraniye Market",
    "market": "tarim_kredi",
    "lat": 41.02452,
    "lon": 29.09958
  },
  {
    "id": "sok-14275",
    "name": "Fatih Yahya Zade",
    "market": "sok",
    "lat": 41.0289,
    "lon": 28.9945
  },
  {
    "id": "sok-970",
    "name": "Sultantepe Mağazası",
    "market": "sok",
    "lat": 41.027622,
    "lon": 29.022247
  },
  {
    "id": "sok-6552",
    "name": "Icadiye Çınar",
    "market": "sok",
    "lat": 41.02816,
    "lon": 29.03049
  },
  {
    "id": "a101-7876",
    "name": "Fıstıkağacı Üsküdar",
    "market": "a101",
    "lat": 41.02836,
    "lon": 29.030544
  },
  {
    "id": "a101-C099",
    "name": "Yazmacı Üsküdar Istanbul",
    "market": "a101",
    "lat": 41.027863,
    "lon": 29.03164
  },
  {
    "id": "sok-237",
    "name": "Üsküdar Kuzguncuk",
    "market": "sok",
    "lat": 41.033237,
    "lon": 29.031939
  },
  {
    "id": "sok-8554",
    "name": "Burhaniye Üsküdar",
    "market": "sok",
    "lat": 41.03229,
    "lon": 29.048857
  },
  {
    "id": "sok-10890",
    "name": "Üsküdar Yazmacı Emine",
    "market": "sok",
    "lat": 41.03462,
    "lon": 29.054298
  },
  {
    "id": "bim-B586",
    "name": "Burhaniyeüsküdar",
    "market": "bim",
    "lat": 41.03476,
    "lon": 29.056437
  },
  {
    "id": "sok-5249",
    "name": "Saklambaç Sokküplüce",
    "market": "sok",
    "lat": 41.0315,
    "lon": 29.063108
  },
  {
    "id": "a101-4240",
    "name": "Tomruk Küplüce Üsküdar  Istanbul",
    "market": "a101",
    "lat": 41.03307,
    "lon": 29.061909
  },
  {
    "id": "migros-9689",
    "name": "Kirazlıtepe Üsküdar Istanbul M",
    "market": "migros",
    "lat": 41.036903,
    "lon": 29.065989
  },
  {
    "id": "a101-4133",
    "name": "Çamlıca Üsküdar Istanbul",
    "market": "a101",
    "lat": 41.03004,
    "lon": 29.074871
  },
  {
    "id": "sok-6550",
    "name": "Üsküdar Ferah",
    "market": "sok",
    "lat": 41.031624,
    "lon": 29.075134
  },
  {
    "id": "sok-10768",
    "name": "Üsküdar Çamlıca Cami",
    "market": "sok",
    "lat": 41.034714,
    "lon": 29.072683
  },
  {
    "id": "sok-4325",
    "name": "Şok Miniferahnaz",
    "market": "sok",
    "lat": 41.03395,
    "lon": 29.076126
  },
  {
    "id": "a101-K125",
    "name": "Bosna Üsküdar Istanbul",
    "market": "a101",
    "lat": 41.03181,
    "lon": 29.079906
  },
  {
    "id": "bim-Q423",
    "name": "Aktürküsküdar",
    "market": "bim",
    "lat": 41.031956,
    "lon": 29.081205
  },
  {
    "id": "sok-8045",
    "name": "Tantavi Mahallesi",
    "market": "sok",
    "lat": 41.028484,
    "lon": 29.080992
  },
  {
    "id": "sok-9091",
    "name": "Karadeniz Caddesi",
    "market": "sok",
    "lat": 41.03264,
    "lon": 29.082092
  },
  {
    "id": "bim-D173",
    "name": "Karadenizüsküdar",
    "market": "bim",
    "lat": 41.03529,
    "lon": 29.083534
  },
  {
    "id": "sok-343",
    "name": "Ümraniye Mağazası",
    "market": "sok",
    "lat": 41.02848,
    "lon": 29.089182
  },
  {
    "id": "a101-I773",
    "name": "Estergon Ümraniye Istanbul",
    "market": "a101",
    "lat": 41.029976,
    "lon": 29.089855
  },
  {
    "id": "a101-B664",
    "name": "Mavera Üsküdar Istanbul",
    "market": "a101",
    "lat": 41.03239,
    "lon": 29.087065
  },
  {
    "id": "bim-T039",
    "name": "Mavera  Ümraniye",
    "market": "bim",
    "lat": 41.03349,
    "lon": 29.087372
  },
  {
    "id": "a101-4253",
    "name": "Yenipazar Ümraniye Istanbul",
    "market": "a101",
    "lat": 41.030487,
    "lon": 29.09347
  },
  {
    "id": "a101-9747",
    "name": "Bağ Sok Ümraniye Istanbul",
    "market": "a101",
    "lat": 41.028763,
    "lon": 29.094364
  },
  {
    "id": "bim-5828",
    "name": "Bülbül  Ümraniye",
    "market": "bim",
    "lat": 41.028828,
    "lon": 29.095268
  },
  {
    "id": "bim-V499",
    "name": "Fahrettin Kerimkadıköy",
    "market": "bim",
    "lat": 41.02891,
    "lon": 29.095406
  },
  {
    "id": "bim-7274",
    "name": "Fatih Sultan Mehmet  Ümraniye",
    "market": "bim",
    "lat": 41.026604,
    "lon": 29.094954
  },
  {
    "id": "a101-4146",
    "name": "Elmalıkent Ümraniye Istanbul",
    "market": "a101",
    "lat": 41.02993,
    "lon": 29.096346
  },
  {
    "id": "bim-K848",
    "name": "Kartal Sokak ümraniye",
    "market": "bim",
    "lat": 41.028038,
    "lon": 29.096905
  },
  {
    "id": "sok-5902",
    "name": "Atatürk Mah Ümraniye",
    "market": "sok",
    "lat": 41.027485,
    "lon": 29.0971
  },
  {
    "id": "sok-3978",
    "name": "Ümraniye Sütçü Imam",
    "market": "sok",
    "lat": 41.024048,
    "lon": 29.09748
  },
  {
    "id": "a101-9494",
    "name": "Çarşı Beşiktaş Istanbul",
    "market": "a101",
    "lat": 41.043297,
    "lon": 29.004852
  },
  {
    "id": "migros-9035",
    "name": "Sinanpaşa Beşiktaş Istanbul M",
    "market": "migros",
    "lat": 41.04331,
    "lon": 29.0039
  },
  {
    "id": "sok-7355",
    "name": "Sinanpaşa Beşiktaş",
    "market": "sok",
    "lat": 41.043056,
    "lon": 29.00267
  },
  {
    "id": "migros-1012",
    "name": "Akaretler Mmm Migros",
    "market": "migros",
    "lat": 41.04309,
    "lon": 29.00252
  },
  {
    "id": "migros-4941",
    "name": "Mjet Beşiktaş Meydan",
    "market": "migros",
    "lat": 41.043724,
    "lon": 29.0077
  },
  {
    "id": "sok-7031",
    "name": "Üsküdar Küplüce",
    "market": "sok",
    "lat": 41.039062,
    "lon": 29.052374
  },
  {
    "id": "a101-4193",
    "name": "Küplüce Üsküdar Istanbul",
    "market": "a101",
    "lat": 41.039494,
    "lon": 29.05217
  },
  {
    "id": "bim-P727",
    "name": "Atlasüsküdar",
    "market": "bim",
    "lat": 41.038113,
    "lon": 29.053385
  },
  {
    "id": "bim-1466",
    "name": "Küplüceüsküdar",
    "market": "bim",
    "lat": 41.040493,
    "lon": 29.051603
  },
  {
    "id": "a101-4264",
    "name": "Saray Üsküdar",
    "market": "a101",
    "lat": 41.03544,
    "lon": 29.058323
  },
  {
    "id": "bim-1094",
    "name": "Kirazlıtepe  Üsküdar",
    "market": "bim",
    "lat": 41.038258,
    "lon": 29.060293
  },
  {
    "id": "bim-L994",
    "name": "Asyaüsküdar",
    "market": "bim",
    "lat": 41.039425,
    "lon": 29.0687
  },
  {
    "id": "sok-2988",
    "name": "Makif Ersoy Ferah",
    "market": "sok",
    "lat": 41.03881,
    "lon": 29.070948
  },
  {
    "id": "a101-4166",
    "name": "Hasippaşa  Üsküdar Istanbul",
    "market": "a101",
    "lat": 41.039215,
    "lon": 29.07021
  },
  {
    "id": "bim-3515",
    "name": "Hasippaşa  Üsküdar",
    "market": "bim",
    "lat": 41.038982,
    "lon": 29.071264
  },
  {
    "id": "sok-12911",
    "name": "Üsküdar Natoyolu",
    "market": "sok",
    "lat": 41.034725,
    "lon": 29.079502
  },
  {
    "id": "a101-C720",
    "name": "Izmir Sokak Üsküdar Istanbul",
    "market": "a101",
    "lat": 41.035793,
    "lon": 29.081978
  },
  {
    "id": "migros-5097",
    "name": "Çengelköy Parkevleri Mm Migros",
    "market": "migros",
    "lat": 41.04168,
    "lon": 29.076988
  },
  {
    "id": "a101-4279",
    "name": "Sütçüyolu Yavuztürk Üsküdar",
    "market": "a101",
    "lat": 41.038284,
    "lon": 29.086412
  },
  {
    "id": "bim-V329",
    "name": "Sütçüyolu  Üsküdar",
    "market": "bim",
    "lat": 41.037655,
    "lon": 29.087206
  },
  {
    "id": "bim-H478",
    "name": "Çamlıcaüsküdar",
    "market": "bim",
    "lat": 41.040188,
    "lon": 29.084871
  },
  {
    "id": "a101-4235",
    "name": "Tantavi Ümraniye Istanbul",
    "market": "a101",
    "lat": 41.03319,
    "lon": 29.089455
  },
  {
    "id": "sok-3321",
    "name": "Üsküdar Sütçü Yolu",
    "market": "sok",
    "lat": 41.038795,
    "lon": 29.085888
  },
  {
    "id": "bim-A853",
    "name": "Elmalıkent  Ümraniye",
    "market": "bim",
    "lat": 41.03477,
    "lon": 29.09438
  },
  {
    "id": "a101-I823",
    "name": "Mandıra Caddesi Ümraniye Istanbul",
    "market": "a101",
    "lat": 41.03356,
    "lon": 29.094856
  },
  {
    "id": "sok-4427",
    "name": "Şok Minikaratascı",
    "market": "sok",
    "lat": 41.038002,
    "lon": 29.094952
  },
  {
    "id": "bim-J292",
    "name": "Eşref Bitlis  Ümraniye",
    "market": "bim",
    "lat": 41.038555,
    "lon": 29.097057
  },
  {
    "id": "sok-13725",
    "name": "Ümraniye Betül Sok",
    "market": "sok",
    "lat": 41.036,
    "lon": 29.1006
  },
  {
    "id": "sok-7369",
    "name": "Beşiktaş Serencebey",
    "market": "sok",
    "lat": 41.0447,
    "lon": 29.0079
  },
  {
    "id": "sok-4714",
    "name": "Şok Minikurtoglu",
    "market": "sok",
    "lat": 41.042576,
    "lon": 29.0
  },
  {
    "id": "sok-9887",
    "name": "Akaretler Şairler",
    "market": "sok",
    "lat": 41.042606,
    "lon": 28.999945
  },
  {
    "id": "a101-0039",
    "name": "Türkali Beşiktaş Istanbul",
    "market": "a101",
    "lat": 41.045364,
    "lon": 29.00255
  },
  {
    "id": "sok-2511",
    "name": "Beşiktaş Barbaros",
    "market": "sok",
    "lat": 41.046173,
    "lon": 29.007418
  },
  {
    "id": "bim-K377",
    "name": "Beşiktaş  Beşiktaş",
    "market": "bim",
    "lat": 41.04724,
    "lon": 29.007547
  },
  {
    "id": "carrefour-5439",
    "name": "Beşıktaş Valıdeçeşme Maçka  Sü",
    "market": "carrefour",
    "lat": 41.043358,
    "lon": 28.997856
  },
  {
    "id": "a101-2793",
    "name": "Yıldız Beşiktaş Istanbul",
    "market": "a101",
    "lat": 41.048527,
    "lon": 29.005995
  },
  {
    "id": "a101-E844",
    "name": "Nüzhetiye Beşiktaş Istanbul",
    "market": "a101",
    "lat": 41.047684,
    "lon": 29.00012
  },
  {
    "id": "carrefour-5244",
    "name": "Istanbul Beşıktaş Nüzhetıye Mı",
    "market": "carrefour",
    "lat": 41.047905,
    "lon": 29.000032
  },
  {
    "id": "bim-J106",
    "name": "Boğaziçi  Beşiktaş",
    "market": "bim",
    "lat": 41.049137,
    "lon": 29.025982
  },
  {
    "id": "sok-5668",
    "name": "Beylerbeyi Arabacılar",
    "market": "sok",
    "lat": 41.04372,
    "lon": 29.045616
  },
  {
    "id": "sok-4381",
    "name": "Şok Miniorhun",
    "market": "sok",
    "lat": 41.043697,
    "lon": 29.064974
  },
  {
    "id": "carrefour-3546",
    "name": "Istanbul Çengelköy Süper",
    "market": "carrefour",
    "lat": 41.049572,
    "lon": 29.054749
  },
  {
    "id": "sok-7016",
    "name": "Halk Cdçengelköy",
    "market": "sok",
    "lat": 41.049885,
    "lon": 29.054369
  },
  {
    "id": "a101-8375",
    "name": "Ayışığı Hasippaşa",
    "market": "a101",
    "lat": 41.042557,
    "lon": 29.069685
  },
  {
    "id": "sok-10507",
    "name": "Üsküdar Namazgah Cad",
    "market": "sok",
    "lat": 41.045822,
    "lon": 29.069948
  },
  {
    "id": "sok-13392",
    "name": "Üsküdar Güzelçeşme Sokak",
    "market": "sok",
    "lat": 41.0392,
    "lon": 29.0763
  },
  {
    "id": "a101-9101",
    "name": "Özçeliküsküdar Üsküd",
    "market": "a101",
    "lat": 41.04358,
    "lon": 29.076418
  },
  {
    "id": "bim-T670",
    "name": "Çamlıktepeüsküdar",
    "market": "bim",
    "lat": 41.048153,
    "lon": 29.072575
  },
  {
    "id": "bim-3559",
    "name": "Bosna  Üsküdar",
    "market": "bim",
    "lat": 41.046844,
    "lon": 29.07612
  },
  {
    "id": "bim-4189",
    "name": "Fırın  Üsküdar",
    "market": "bim",
    "lat": 41.040398,
    "lon": 29.084846
  },
  {
    "id": "bim-1508",
    "name": "Güzeltepeüsküdar",
    "market": "bim",
    "lat": 41.040203,
    "lon": 29.084862
  },
  {
    "id": "bim-L167",
    "name": "Büyükçamlıcaüsküdar",
    "market": "bim",
    "lat": 41.040207,
    "lon": 29.084873
  },
  {
    "id": "bim-6629",
    "name": "Sondurak  Ferah",
    "market": "bim",
    "lat": 41.04019,
    "lon": 29.084871
  },
  {
    "id": "a101-7456",
    "name": "Yavuztürk Üsküdar",
    "market": "a101",
    "lat": 41.040573,
    "lon": 29.085424
  },
  {
    "id": "a101-4255",
    "name": "Yeşil Yamaç Üsküdar Istanbul",
    "market": "a101",
    "lat": 41.044956,
    "lon": 29.085245
  },
  {
    "id": "sok-3232",
    "name": "Doğuş Üniversitesi",
    "market": "sok",
    "lat": 41.04763,
    "lon": 29.076181
  },
  {
    "id": "sok-4668",
    "name": "Şok Miniümraniye Ayazağa",
    "market": "sok",
    "lat": 41.04404,
    "lon": 29.094254
  },
  {
    "id": "bim-P729",
    "name": "Tarihüsküdar",
    "market": "bim",
    "lat": 41.04271,
    "lon": 29.086128
  },
  {
    "id": "a101-E478",
    "name": "Seyrantepe Ümraniye Istanbul",
    "market": "a101",
    "lat": 41.04359,
    "lon": 29.098389
  },
  {
    "id": "sok-6400",
    "name": "Ademyavuz",
    "market": "sok",
    "lat": 41.044804,
    "lon": 29.09981
  },
  {
    "id": "a101-E918",
    "name": "Gölgelik Ümraniye Istanbul",
    "market": "a101",
    "lat": 41.045074,
    "lon": 29.099693
  },
  {
    "id": "sok-1050",
    "name": "Yıldız Market",
    "market": "sok",
    "lat": 41.0486,
    "lon": 29.006
  },
  {
    "id": "sok-6465",
    "name": "Ihlamur Dere",
    "market": "sok",
    "lat": 41.04806,
    "lon": 29.002651
  },
  {
    "id": "bim-J113",
    "name": "Barbaros  Beşiktaş",
    "market": "bim",
    "lat": 41.051273,
    "lon": 29.00704
  },
  {
    "id": "migros-4340",
    "name": "Mjet Beşiktaş Yıldız",
    "market": "migros",
    "lat": 41.051384,
    "lon": 29.007812
  },
  {
    "id": "migros-1048",
    "name": "Ihlamur Mm Migros",
    "market": "migros",
    "lat": 41.049946,
    "lon": 29.001574
  },
  {
    "id": "sok-7349",
    "name": "Nuzhetıye",
    "market": "sok",
    "lat": 41.04683,
    "lon": 29.000137
  },
  {
    "id": "bim-J115",
    "name": "Darphane  Beşiktaş",
    "market": "bim",
    "lat": 41.05433,
    "lon": 29.007643
  },
  {
    "id": "carrefour-5087",
    "name": "Istanbul Topağacı Mını",
    "market": "carrefour",
    "lat": 41.050484,
    "lon": 28.99691
  },
  {
    "id": "bim-J118",
    "name": "Topağacı Nişantaşışişli",
    "market": "bim",
    "lat": 41.04992,
    "lon": 28.9956
  },
  {
    "id": "sok-13586",
    "name": "Sarıyer Büyükarmutlu",
    "market": "sok",
    "lat": 41.0535,
    "lon": 29.0157
  },
  {
    "id": "sok-797",
    "name": "Ortaköy Mağazası",
    "market": "sok",
    "lat": 41.053345,
    "lon": 29.023363
  },
  {
    "id": "sok-7348",
    "name": "Defne Ortaköy",
    "market": "sok",
    "lat": 41.05445,
    "lon": 29.023003
  },
  {
    "id": "bim-J107",
    "name": "Ambarlıdere  Beşiktaş",
    "market": "bim",
    "lat": 41.05476,
    "lon": 29.022642
  },
  {
    "id": "migros-2202",
    "name": "Ortaköy Mmm Migros",
    "market": "migros",
    "lat": 41.055603,
    "lon": 29.023523
  },
  {
    "id": "bim-B779",
    "name": "Çengelköyüsküdar",
    "market": "bim",
    "lat": 41.049942,
    "lon": 29.059631
  },
  {
    "id": "sok-3311",
    "name": "Çengelköy Beynun Akyavaş",
    "market": "sok",
    "lat": 41.049667,
    "lon": 29.059755
  },
  {
    "id": "migros-8398",
    "name": "Çengelköy Cadde Istanbul Mm",
    "market": "migros",
    "lat": 41.050766,
    "lon": 29.062708
  },
  {
    "id": "a101-5523",
    "name": "Çengelköy Üsküdar Istanbul",
    "market": "a101",
    "lat": 41.050648,
    "lon": 29.063215
  },
  {
    "id": "bim-V387",
    "name": "Beyazıt üsküdar",
    "market": "bim",
    "lat": 41.051178,
    "lon": 29.063179
  },
  {
    "id": "sok-10481",
    "name": "Üsküdar Kireçoğlu Sok",
    "market": "sok",
    "lat": 41.05134,
    "lon": 29.06504
  },
  {
    "id": "a101-B938",
    "name": "Soner Sk Üsküdar Istanbul",
    "market": "a101",
    "lat": 41.054256,
    "lon": 29.063519
  },
  {
    "id": "migros-2155",
    "name": "Çengelköy Mm Migros",
    "market": "migros",
    "lat": 41.049923,
    "lon": 29.07702
  },
  {
    "id": "a101-D493",
    "name": "Goncalar Üsküdar Istanbul",
    "market": "a101",
    "lat": 41.05017,
    "lon": 29.077267
  },
  {
    "id": "bim-G453",
    "name": "Zübeyde Hanım  Üsküdar",
    "market": "bim",
    "lat": 41.050922,
    "lon": 29.076246
  },
  {
    "id": "sok-11488",
    "name": "Üsküdar Ata2",
    "market": "sok",
    "lat": 41.050327,
    "lon": 29.079208
  },
  {
    "id": "bim-R203",
    "name": "Bahçelievlerüsküdar",
    "market": "bim",
    "lat": 41.05261,
    "lon": 29.076458
  },
  {
    "id": "tarim_kredi-5209",
    "name": "Istanbul Üsküdar Güzeltepe",
    "market": "tarim_kredi",
    "lat": 41.05592,
    "lon": 29.07432
  },
  {
    "id": "a101-8515",
    "name": "Kayıkent Üsküdar",
    "market": "a101",
    "lat": 41.050037,
    "lon": 29.08493
  },
  {
    "id": "sok-2794",
    "name": "Zübeyde Hanım Cadde",
    "market": "sok",
    "lat": 41.05495,
    "lon": 29.075094
  },
  {
    "id": "bim-T043",
    "name": "Anadolu ümraniye",
    "market": "bim",
    "lat": 41.0476,
    "lon": 29.092922
  },
  {
    "id": "bim-V496",
    "name": "Dereboyusancaktepe",
    "market": "bim",
    "lat": 41.05343,
    "lon": 29.084284
  },
  {
    "id": "a101-8588",
    "name": "Dumlupınar Ümraniye",
    "market": "a101",
    "lat": 41.048862,
    "lon": 29.095346
  },
  {
    "id": "a101-6815",
    "name": "Kostak Ümraniye",
    "market": "a101",
    "lat": 41.05328,
    "lon": 29.093382
  },
  {
    "id": "bim-T044",
    "name": "Ergeç  Ümraniye",
    "market": "bim",
    "lat": 41.043995,
    "lon": 29.098845
  },
  {
    "id": "bim-T040",
    "name": "Dumlupınar  Ümraniye",
    "market": "bim",
    "lat": 41.045055,
    "lon": 29.099773
  },
  {
    "id": "sok-6941",
    "name": "Ümraniye Asil Caddesi",
    "market": "sok",
    "lat": 41.0478,
    "lon": 29.101734
  },
  {
    "id": "sok-6183",
    "name": "Istanbul Beşiktaş Zambak",
    "market": "sok",
    "lat": 41.0538,
    "lon": 29.0064
  },
  {
    "id": "sok-13616",
    "name": "Balmumcu Askeri Lojmanlar",
    "market": "sok",
    "lat": 41.0551,
    "lon": 29.0101
  },
  {
    "id": "bim-J111",
    "name": "Dikilitaşbeşiktaş",
    "market": "bim",
    "lat": 41.055656,
    "lon": 29.003029
  },
  {
    "id": "a101-0507",
    "name": "Bestekar Beşiktaş Istanbul",
    "market": "a101",
    "lat": 41.057564,
    "lon": 29.005531
  },
  {
    "id": "carrefour-5038",
    "name": "Istanbul Balmumcu Mını",
    "market": "carrefour",
    "lat": 41.060078,
    "lon": 29.010702
  },
  {
    "id": "migros-5085",
    "name": "Mjet Balmumcu Istanbul",
    "market": "migros",
    "lat": 41.060307,
    "lon": 29.010584
  },
  {
    "id": "a101-0317",
    "name": "Bülent Tarcan Beşiktaş Istanbul",
    "market": "a101",
    "lat": 41.060257,
    "lon": 29.001324
  },
  {
    "id": "a101-G409",
    "name": "Hoşsohbet Beşiktaş Istanbul",
    "market": "a101",
    "lat": 41.060703,
    "lon": 29.010214
  },
  {
    "id": "a101-3099",
    "name": "Ortaköy Beşiktaş Istanbul",
    "market": "a101",
    "lat": 41.0562,
    "lon": 29.0227
  },
  {
    "id": "carrefour-2012",
    "name": "Istanbul Ortaköy Gurme",
    "market": "carrefour",
    "lat": 41.05864,
    "lon": 29.024578
  },
  {
    "id": "migros-9039",
    "name": "Kuruçeşme Beşiktaş Istanbul M",
    "market": "migros",
    "lat": 41.05967,
    "lon": 29.03595
  },
  {
    "id": "carrefour-5215",
    "name": "Istanbul Çengelköy Kaldırım Mı",
    "market": "carrefour",
    "lat": 41.057304,
    "lon": 29.063633
  },
  {
    "id": "bim-3088",
    "name": "Kuleli  Üsküdar",
    "market": "bim",
    "lat": 41.05762,
    "lon": 29.063643
  },
  {
    "id": "a101-D051",
    "name": "Talimhane Üsküdar Istanbul",
    "market": "a101",
    "lat": 41.057453,
    "lon": 29.063925
  },
  {
    "id": "migros-4433",
    "name": "Mjet Çengelköy Rasathane",
    "market": "migros",
    "lat": 41.059067,
    "lon": 29.064621
  },
  {
    "id": "sok-768",
    "name": "Talimhane",
    "market": "sok",
    "lat": 41.0581,
    "lon": 29.068146
  },
  {
    "id": "a101-0188",
    "name": "Rasathane Üsküdar Istanbul",
    "market": "a101",
    "lat": 41.058155,
    "lon": 29.071339
  },
  {
    "id": "a101-4593",
    "name": "Bahçelievler Üsküdar",
    "market": "a101",
    "lat": 41.055195,
    "lon": 29.077436
  },
  {
    "id": "bim-P530",
    "name": "Sultan Muratüsküdar",
    "market": "bim",
    "lat": 41.05848,
    "lon": 29.076496
  },
  {
    "id": "a101-G487",
    "name": "Ayla Üsküdar Istanbul",
    "market": "a101",
    "lat": 41.058987,
    "lon": 29.078636
  },
  {
    "id": "sok-6551",
    "name": "Çengelköy Sultan Murat",
    "market": "sok",
    "lat": 41.059032,
    "lon": 29.078323
  },
  {
    "id": "a101-4241",
    "name": "Topağacı Ümraniye Istanbul",
    "market": "a101",
    "lat": 41.05068,
    "lon": 29.10104
  },
  {
    "id": "a101-4594",
    "name": "Hekimbaşı Ümraniye Istanbul",
    "market": "a101",
    "lat": 41.061058,
    "lon": 29.096409
  },
  {
    "id": "sok-2088",
    "name": "Dikilitaş",
    "market": "sok",
    "lat": 41.0605,
    "lon": 29.0073
  },
  {
    "id": "migros-3249",
    "name": "Gayrettepe Saatçibayırı M",
    "market": "migros",
    "lat": 41.06229,
    "lon": 29.00425
  },
  {
    "id": "bim-L518",
    "name": "Vefa  Şişli",
    "market": "bim",
    "lat": 41.061996,
    "lon": 29.001102
  },
  {
    "id": "sok-2446",
    "name": "Gayrettepe",
    "market": "sok",
    "lat": 41.062347,
    "lon": 29.000944
  },
  {
    "id": "a101-F724",
    "name": "Gayrettepe Şişli Istanbul",
    "market": "a101",
    "lat": 41.06431,
    "lon": 29.002274
  },
  {
    "id": "sok-3021",
    "name": "Beşiktaş Vefabey Sokak",
    "market": "sok",
    "lat": 41.065464,
    "lon": 29.006123
  },
  {
    "id": "bim-J116",
    "name": "Ortaklarşişli",
    "market": "bim",
    "lat": 41.062412,
    "lon": 28.999065
  },
  {
    "id": "migros-159",
    "name": "Gayrettepe Mağazası",
    "market": "migros",
    "lat": 41.06594,
    "lon": 29.00756
  },
  {
    "id": "carrefour-3157",
    "name": "Istanbul Mecıdıyeköy 2 Süper",
    "market": "carrefour",
    "lat": 41.06315,
    "lon": 28.99846
  },
  {
    "id": "migros-5769",
    "name": "Mjet Mehmetçik Cad Fulya Ist",
    "market": "migros",
    "lat": 41.058502,
    "lon": 28.996708
  },
  {
    "id": "a101-6037",
    "name": "Fulya Şişli Istanbul",
    "market": "a101",
    "lat": 41.05965,
    "lon": 28.996532
  },
  {
    "id": "bim-K241",
    "name": "Mehmetçik Caddesi  Şişli",
    "market": "bim",
    "lat": 41.060112,
    "lon": 28.996338
  },
  {
    "id": "carrefour-5037",
    "name": "Istanbul Esentepe Vılla Cad M",
    "market": "carrefour",
    "lat": 41.066265,
    "lon": 29.009834
  },
  {
    "id": "carrefour-3564",
    "name": "Istanbul Mecıdıyeköy Süper",
    "market": "carrefour",
    "lat": 41.06431,
    "lon": 28.996946
  },
  {
    "id": "sok-937",
    "name": "Levazım Sitesi Mağaza",
    "market": "sok",
    "lat": 41.06371,
    "lon": 29.019655
  },
  {
    "id": "a101-I146",
    "name": "Ulus Beşiktaş Istanbul",
    "market": "a101",
    "lat": 41.064434,
    "lon": 29.027538
  },
  {
    "id": "a101-4242",
    "name": "Tufan Üsküdar  Istanbul",
    "market": "a101",
    "lat": 41.061947,
    "lon": 29.066181
  },
  {
    "id": "sok-1422",
    "name": "Kandilli Rasathane",
    "market": "sok",
    "lat": 41.06425,
    "lon": 29.066444
  },
  {
    "id": "a101-E134",
    "name": "Çınarlıdere Üsküdar Istanbul",
    "market": "a101",
    "lat": 41.061768,
    "lon": 29.072403
  },
  {
    "id": "bim-6362",
    "name": "Tufan  Üsküdar",
    "market": "bim",
    "lat": 41.06134,
    "lon": 29.074116
  },
  {
    "id": "a101-4191",
    "name": "Küçüksu Beykoz Istanbul",
    "market": "a101",
    "lat": 41.06651,
    "lon": 29.078222
  },
  {
    "id": "bim-G656",
    "name": "Zafer  Beykoz",
    "market": "bim",
    "lat": 41.065605,
    "lon": 29.089937
  },
  {
    "id": "bim-J739",
    "name": "Ömer Besim  Beykoz",
    "market": "bim",
    "lat": 41.06747,
    "lon": 29.087286
  },
  {
    "id": "a101-5048",
    "name": "Yeni Mahbeykoz Istanbul",
    "market": "a101",
    "lat": 41.06774,
    "lon": 29.083818
  },
  {
    "id": "sok-11334",
    "name": "Beykoz Yonca Sokak",
    "market": "sok",
    "lat": 41.067795,
    "lon": 29.082071
  },
  {
    "id": "bim-G675",
    "name": "Yenihekimbaşı  Beykoz",
    "market": "bim",
    "lat": 41.061363,
    "lon": 29.09802
  },
  {
    "id": "a101-K027",
    "name": "Aydın Ümraniye Istanbul",
    "market": "a101",
    "lat": 41.060493,
    "lon": 29.099478
  },
  {
    "id": "a101-E743",
    "name": "Ömer Besimpaşa Beykoz Istanbul",
    "market": "a101",
    "lat": 41.067154,
    "lon": 29.090763
  },
  {
    "id": "bim-G662",
    "name": "Yeni Mahalle  Beykoz",
    "market": "bim",
    "lat": 41.0673,
    "lon": 29.090504
  },
  {
    "id": "migros-9756",
    "name": "Astoria Istanbul M Migros",
    "market": "migros",
    "lat": 41.068867,
    "lon": 29.005703
  },
  {
    "id": "a101-C719",
    "name": "Çiçeklibahar Şişli Istanbul",
    "market": "a101",
    "lat": 41.069286,
    "lon": 29.003805
  },
  {
    "id": "bim-J126",
    "name": "Raşit Rızaşişli",
    "market": "bim",
    "lat": 41.068085,
    "lon": 29.001104
  },
  {
    "id": "sok-12037",
    "name": "Şişli Alibey",
    "market": "sok",
    "lat": 41.07003,
    "lon": 29.003323
  },
  {
    "id": "a101-I561",
    "name": "Mecidiyeköy Şişli Istanbul",
    "market": "a101",
    "lat": 41.06725,
    "lon": 28.999615
  },
  {
    "id": "carrefour-5223",
    "name": "Istanbul Esentepe Denızbank Mı",
    "market": "carrefour",
    "lat": 41.069565,
    "lon": 29.01106
  },
  {
    "id": "carrefour-5004",
    "name": "Istanbul Esentepe Zıncırlıkuyu",
    "market": "carrefour",
    "lat": 41.06921,
    "lon": 29.012041
  },
  {
    "id": "migros-8237",
    "name": "Gülbağ Mecidiyeköy Ist Mm",
    "market": "migros",
    "lat": 41.06891,
    "lon": 29.000122
  },
  {
    "id": "a101-G944",
    "name": "Salih Tozan Şişli Istanbul",
    "market": "a101",
    "lat": 41.071167,
    "lon": 29.004848
  },
  {
    "id": "sok-5436",
    "name": "Darcan Sk Mecidiyeköy",
    "market": "sok",
    "lat": 41.069633,
    "lon": 28.999296
  },
  {
    "id": "bim-J128",
    "name": "Mecidiyeköy  Şişli",
    "market": "bim",
    "lat": 41.069542,
    "lon": 28.998121
  },
  {
    "id": "bim-T016",
    "name": "Şehit Ertuğrul  Şişli",
    "market": "bim",
    "lat": 41.070763,
    "lon": 28.999117
  },
  {
    "id": "sok-7363",
    "name": "Kore Zincirlikuyu",
    "market": "sok",
    "lat": 41.070324,
    "lon": 29.013664
  },
  {
    "id": "carrefour-2082",
    "name": "Istanbul Beşıktaş Nısbetıye Fe",
    "market": "carrefour",
    "lat": 41.071857,
    "lon": 29.02002
  },
  {
    "id": "migros-7132",
    "name": "Ulus Istanbul M Migros",
    "market": "migros",
    "lat": 41.06863,
    "lon": 29.02922
  },
  {
    "id": "a101-F486",
    "name": "Nispetiye Beşiktaş Istanbul",
    "market": "a101",
    "lat": 41.073982,
    "lon": 29.018063
  },
  {
    "id": "a101-G861",
    "name": "Peker Beşiktaş Istanbul",
    "market": "a101",
    "lat": 41.073776,
    "lon": 29.021679
  },
  {
    "id": "carrefour-2046",
    "name": "Istanbul Beşıktaş Ulus",
    "market": "carrefour",
    "lat": 41.07114,
    "lon": 29.025291
  },
  {
    "id": "sok-7357",
    "name": "Ulus",
    "market": "sok",
    "lat": 41.072556,
    "lon": 29.029068
  },
  {
    "id": "sok-6096",
    "name": "Beşiktaş Arnavutköy",
    "market": "sok",
    "lat": 41.06874,
    "lon": 29.043844
  },
  {
    "id": "bim-J105",
    "name": "Arnavutköy  Beşiktaş",
    "market": "bim",
    "lat": 41.06893,
    "lon": 29.043694
  },
  {
    "id": "migros-6541",
    "name": "Mjet Arnavutköy Istanbul",
    "market": "migros",
    "lat": 41.06931,
    "lon": 29.04334
  },
  {
    "id": "a101-0406",
    "name": "Miralay Üsküdar Istanbul",
    "market": "a101",
    "lat": 41.06523,
    "lon": 29.06918
  },
  {
    "id": "sok-13658",
    "name": "Üsküdar Taşocağı",
    "market": "sok",
    "lat": 41.0686,
    "lon": 29.0686
  },
  {
    "id": "sok-805",
    "name": "Üsküdar Hekimbaşı",
    "market": "sok",
    "lat": 41.07069,
    "lon": 29.072683
  },
  {
    "id": "bim-G664",
    "name": "Küçüksu  Beykoz",
    "market": "bim",
    "lat": 41.07234,
    "lon": 29.071922
  },
  {
    "id": "bim-G634",
    "name": "Çiftlik  Beykoz",
    "market": "bim",
    "lat": 41.067894,
    "lon": 29.082375
  },
  {
    "id": "a101-8290",
    "name": "Zincirlikuyu Şişli Istanbul",
    "market": "a101",
    "lat": 41.07291,
    "lon": 29.001364
  },
  {
    "id": "sok-6914",
    "name": "Mecidiyeköy Cemal Sururi",
    "market": "sok",
    "lat": 41.07144,
    "lon": 29.00081
  },
  {
    "id": "a101-8169",
    "name": "Cemal Sururi Şişli",
    "market": "a101",
    "lat": 41.069893,
    "lon": 29.000734
  },
  {
    "id": "a101-0233",
    "name": "Kardeşler Şişli Istanbul",
    "market": "a101",
    "lat": 41.076057,
    "lon": 29.007915
  },
  {
    "id": "bim-J125",
    "name": "Gülbağşişli",
    "market": "bim",
    "lat": 41.07097,
    "lon": 28.999002
  },
  {
    "id": "sok-347",
    "name": "Gülbağ Mağazası",
    "market": "sok",
    "lat": 41.071167,
    "lon": 28.998924
  },
  {
    "id": "migros-1078",
    "name": "Metro Cıty Mmm Migros",
    "market": "migros",
    "lat": 41.076015,
    "lon": 29.012087
  },
  {
    "id": "bim-J139",
    "name": "Ortabayırkağıthane",
    "market": "bim",
    "lat": 41.078938,
    "lon": 29.006704
  },
  {
    "id": "migros-8983",
    "name": "Mecidiye Cd Şişli Istanbul M",
    "market": "migros",
    "lat": 41.06714,
    "lon": 28.997183
  },
  {
    "id": "sok-7361",
    "name": "Levent Carsı",
    "market": "sok",
    "lat": 41.07629,
    "lon": 29.016981
  },
  {
    "id": "migros-1103",
    "name": "Nispetiye Mmm Migros",
    "market": "migros",
    "lat": 41.0752,
    "lon": 29.01921
  },
  {
    "id": "sok-7368",
    "name": "Ecza Cdşişli",
    "market": "sok",
    "lat": 41.078285,
    "lon": 29.008461
  },
  {
    "id": "sok-7359",
    "name": "Selçuklar Akatlar",
    "market": "sok",
    "lat": 41.078033,
    "lon": 29.026585
  },
  {
    "id": "sok-1114",
    "name": "Bebek Mağazası",
    "market": "sok",
    "lat": 41.079346,
    "lon": 29.04485
  },
  {
    "id": "a101-0377",
    "name": "Üçyol Üsküdar Istanbul",
    "market": "a101",
    "lat": 41.07374,
    "lon": 29.071012
  },
  {
    "id": "bim-K808",
    "name": "Göztepe  Beykoz",
    "market": "bim",
    "lat": 41.079067,
    "lon": 29.076366
  },
  {
    "id": "a101-4160",
    "name": "Göksu Beykoz",
    "market": "a101",
    "lat": 41.079517,
    "lon": 29.076565
  },
  {
    "id": "sok-8206",
    "name": "Bent Yolu Beykoz",
    "market": "sok",
    "lat": 41.07954,
    "lon": 29.076561
  },
  {
    "id": "carrefour-2005",
    "name": "Istanbul Anadolu Hısarı Gurme",
    "market": "carrefour",
    "lat": 41.08007,
    "lon": 29.08003
  },
  {
    "id": "sok-6208",
    "name": "Gültepe Ortabayır",
    "market": "sok",
    "lat": 41.0794,
    "lon": 29.0059
  },
  {
    "id": "sok-7371",
    "name": "Mayıs Sk Gultepe",
    "market": "sok",
    "lat": 41.07845,
    "lon": 29.003458
  },
  {
    "id": "bim-J141",
    "name": "Cengizhankağıthane",
    "market": "bim",
    "lat": 41.079205,
    "lon": 29.004087
  },
  {
    "id": "a101-1543",
    "name": "Ortabayır Kağıthane Istanbul",
    "market": "a101",
    "lat": 41.079945,
    "lon": 29.004002
  },
  {
    "id": "a101-D885",
    "name": "Mimal Kağıthane Istanbul",
    "market": "a101",
    "lat": 41.078754,
    "lon": 29.002459
  },
  {
    "id": "sok-3344",
    "name": "Gültepe Erkılıç",
    "market": "sok",
    "lat": 41.078987,
    "lon": 29.002237
  },
  {
    "id": "a101-K463",
    "name": "Meydan Sokak Kağıthane Istanbul",
    "market": "a101",
    "lat": 41.07963,
    "lon": 29.002483
  },
  {
    "id": "sok-9480",
    "name": "Istanbul Kağıthane Dutluk",
    "market": "sok",
    "lat": 41.080788,
    "lon": 29.003178
  },
  {
    "id": "bim-T624",
    "name": "Piri Reis  Kağıthane",
    "market": "bim",
    "lat": 41.082523,
    "lon": 29.004803
  },
  {
    "id": "bim-J144",
    "name": "Gültepe  Kağıthane",
    "market": "bim",
    "lat": 41.079384,
    "lon": 28.999487
  },
  {
    "id": "migros-4654",
    "name": "Mjet Kristal Kule",
    "market": "migros",
    "lat": 41.08265,
    "lon": 29.008623
  },
  {
    "id": "bim-J145",
    "name": "Dutluk Caddesi  Kağıthane",
    "market": "bim",
    "lat": 41.080368,
    "lon": 28.999996
  },
  {
    "id": "tarim_kredi-7225",
    "name": "Istanbul Kağıthane Çeliktepe",
    "market": "tarim_kredi",
    "lat": 41.08281,
    "lon": 29.00409
  },
  {
    "id": "migros-8022",
    "name": "Mjet Dutluk Cdkagithane Ist",
    "market": "migros",
    "lat": 41.080585,
    "lon": 28.999626
  },
  {
    "id": "carrefour-5001",
    "name": "Istanbul Levent Iş Kulelerı Mı",
    "market": "carrefour",
    "lat": 41.0822,
    "lon": 29.012295
  },
  {
    "id": "carrefour-5044",
    "name": "Istanbul Sabancı Center Mını",
    "market": "carrefour",
    "lat": 41.085567,
    "lon": 29.010576
  },
  {
    "id": "bim-J137",
    "name": "Çeliktepe  Kağıthane",
    "market": "bim",
    "lat": 41.083637,
    "lon": 29.004091
  },
  {
    "id": "sok-1067",
    "name": "Akatlar Zeytinoğlu Ma",
    "market": "sok",
    "lat": 41.084225,
    "lon": 29.026651
  },
  {
    "id": "migros-5941",
    "name": "Mjet Bebek Yokuşu Nispetiye",
    "market": "migros",
    "lat": 41.080215,
    "lon": 29.034235
  },
  {
    "id": "sok-7353",
    "name": "Nisbetiye Etiler",
    "market": "sok",
    "lat": 41.08032,
    "lon": 29.034384
  },
  {
    "id": "sok-7364",
    "name": "Seher Sk Etiler",
    "market": "sok",
    "lat": 41.084755,
    "lon": 29.033611
  },
  {
    "id": "sok-1081",
    "name": "Etiler Cengiz Topel M",
    "market": "sok",
    "lat": 41.084377,
    "lon": 29.038984
  },
  {
    "id": "bim-J109",
    "name": "Fatma Betül Aysan  Sarıyer",
    "market": "bim",
    "lat": 41.08614,
    "lon": 29.048277
  },
  {
    "id": "sok-7409",
    "name": "Rumelıhısarustu",
    "market": "sok",
    "lat": 41.086174,
    "lon": 29.048723
  },
  {
    "id": "sok-7007",
    "name": "Anadolu Hisarı",
    "market": "sok",
    "lat": 41.084152,
    "lon": 29.067944
  },
  {
    "id": "migros-1747",
    "name": "Anadolu Hisarı  Mmm Migros",
    "market": "migros",
    "lat": 41.081097,
    "lon": 29.07913
  },
  {
    "id": "sok-7008",
    "name": "Göksu Evleri",
    "market": "sok",
    "lat": 41.081894,
    "lon": 29.085976
  },
  {
    "id": "a101-0708",
    "name": "Uygur Kavacık Beykoz Istanbul",
    "market": "a101",
    "lat": 41.084957,
    "lon": 29.080683
  }
]