[
  {
    "id": "bim-B688",
    "name": "Paşabahçe  Beylikdüzü",
    "market": "bim",
    "lat": 40.999805,
    "lon": 28.621607
  },
  {
    "id": "a101-4738",
    "name": "Adnan Kahveci Beylikdüzü Istanbul",
    "market": "a101",
    "lat": 41.00042,
    "lon": 28.628485
  },
  {
    "id": "bim-B632",
    "name": "Adnan Kahvecibeylikdüzü",
    "market": "bim",
    "lat": 40.999798,
    "lon": 28.61823
  },
  {
    "id": "a101-I416",
    "name": "Yavuz Sultan Selim Beylikdüzü Istanbul",
    "market": "a101",
    "lat": 40.997795,
    "lon": 28.626202
  },
  {
    "id": "sok-6969",
    "name": "Beylikdüzü Esentepe",
    "market": "sok",
    "lat": 40.999817,
    "lon": 28.62983
  },
  {
    "id": "sok-5424",
    "name": "Beylikdüzü Çamlıtepe",
    "market": "sok",
    "lat": 40.99742,
    "lon": 28.628887
  },
  {
    "id": "sok-6913",
    "name": "Beylikdüzü Paşabahçe",
    "market": "sok",
    "lat": 41.000137,
    "lon": 28.623161
  },
  {
    "id": "tarim_kredi-5246",
    "name": "Istanbul Beylikdüzü Gürpınar",
    "market": "tarim_kredi",
    "lat": 40.99832,
    "lon": 28.61681
  },
  {
    "id": "sok-7332",
    "name": "Beykent Osmanlı",
    "market": "sok",
    "lat": 41.0028,
    "lon": 28.6288
  },
  {
    "id": "migros-6050",
    "name": "Kılıçkent Beylikdüzü M Migros",
    "market": "migros",
    "lat": 40.997494,
    "lon": 28.622887
  },
  {
    "id": "sok-1989",
    "name": "Büyükçekmece Yeşilken",
    "market": "sok",
    "lat": 41.001602,
    "lon": 28.62208
  },
  {
    "id": "a101-4826",
    "name": "Aksoy Beylikdüzü Istanbul",
    "market": "a101",
    "lat": 40.995434,
    "lon": 28.624634
  },
  {
    "id": "bim-V514",
    "name": "Akın Yılmaz  Beylikdüzü",
    "market": "bim",
    "lat": 40.995243,
    "lon": 28.623718
  },
  {
    "id": "a101-6694",
    "name": "Yelizevler Gürpınar Istanbul",
    "market": "a101",
    "lat": 40.9966,
    "lon": 28.61518
  },
  {
    "id": "bim-B631",
    "name": "Yavuzselim  Beylikdüzü",
    "market": "bim",
    "lat": 40.99648,
    "lon": 28.625975
  },
  {
    "id": "migros-5998",
    "name": "Çarşı Beykent Ist Mmm Migros",
    "market": "migros",
    "lat": 41.005,
    "lon": 28.626364
  },
  {
    "id": "carrefour-3317",
    "name": "Istanbul Beylıkdüzü Şentürk Sü",
    "market": "carrefour",
    "lat": 40.99977,
    "lon": 28.627752
  },
  {
    "id": "bim-B639",
    "name": "Ayfer Sokbeylikdüzü",
    "market": "bim",
    "lat": 40.993633,
    "lon": 28.620018
  },
  {
    "id": "tarim_kredi-5133",
    "name": "Istanbul Beykent Market",
    "market": "tarim_kredi",
    "lat": 40.99453,
    "lon": 28.62528
  },
  {
    "id": "a101-G622",
    "name": "Kuştepe Beylikdüzü Istanbul",
    "market": "a101",
    "lat": 40.99556,
    "lon": 28.628197
  },
  {
    "id": "migros-5639",
    "name": "Beykent Büyükçekmece Mm Migros",
    "market": "migros",
    "lat": 41.0056,
    "lon": 28.6215
  },
  {
    "id": "tarim_kredi-5337",
    "name": "Istanbul Beylikdüzü Çamlıtepe",
    "market": "tarim_kredi",
    "lat": 40.99733,
    "lon": 28.63167
  },
  {
    "id": "a101-4816",
    "name": "Reşitpaşa Beylikdüzü Istanbul",
    "market": "a101",
    "lat": 40.99522,
    "lon": 28.618984
  },
  {
    "id": "migros-4818",
    "name": "Kalekent Beylikdüzü Mm Migros",
    "market": "migros",
    "lat": 41.002995,
    "lon": 28.63579
  },
  {
    "id": "migros-3150",
    "name": "Beylikdüzü Whıte Corner Mm",
    "market": "migros",
    "lat": 41.000076,
    "lon": 28.644974
  },
  {
    "id": "a101-G383",
    "name": "Davutpaşa Beylikdüzü Istanbul",
    "market": "a101",
    "lat": 40.998116,
    "lon": 28.638288
  },
  {
    "id": "sok-8766",
    "name": "Beylikdüzü Kuzey",
    "market": "sok",
    "lat": 40.99885,
    "lon": 28.636082
  },
  {
    "id": "bim-B634",
    "name": "Cumhuriyet  Beylikdüzü",
    "market": "bim",
    "lat": 41.003136,
    "lon": 28.642284
  },
  {
    "id": "bim-B648",
    "name": "Dorapark  Beylikdüzü",
    "market": "bim",
    "lat": 40.99772,
    "lon": 28.633413
  },
  {
    "id": "sok-11138",
    "name": "Beylikdüzü Konakkent",
    "market": "sok",
    "lat": 40.99587,
    "lon": 28.635084
  },
  {
    "id": "sok-231",
    "name": "Istanbul Beylikdüzü Söğüt",
    "market": "sok",
    "lat": 41.006374,
    "lon": 28.640783
  },
  {
    "id": "a101-D656",
    "name": "Bizimkent Beylikdüzü Istanbul",
    "market": "a101",
    "lat": 41.00677,
    "lon": 28.639675
  },
  {
    "id": "bim-U124",
    "name": "Lotus  Beylikdüzü",
    "market": "bim",
    "lat": 40.99302,
    "lon": 28.635971
  },
  {
    "id": "a101-F850",
    "name": "Ihlamur Beylikdüzü Istanbul",
    "market": "a101",
    "lat": 40.994324,
    "lon": 28.63292
  },
  {
    "id": "bim-L376",
    "name": "Büyükdere  Beylikdüzü",
    "market": "bim",
    "lat": 40.99468,
    "lon": 28.632397
  },
  {
    "id": "bim-H276",
    "name": "Beyazlar  Beylikdüzü",
    "market": "bim",
    "lat": 41.005016,
    "lon": 28.632097
  },
  {
    "id": "migros-8862",
    "name": "Lotus Koru Beylikdüzü Ist M",
    "market": "migros",
    "lat": 40.993977,
    "lon": 28.636774
  },
  {
    "id": "a101-F106",
    "name": "Mektebim Beylikdüzü Istanbul",
    "market": "a101",
    "lat": 41.0082,
    "lon": 28.633032
  },
  {
    "id": "a101-E007",
    "name": "Yeni Erenler Beylikdüzü Istanbul",
    "market": "a101",
    "lat": 41.003468,
    "lon": 28.632004
  },
  {
    "id": "a101-4703",
    "name": "Adakent Beylikdüzü Istanbul",
    "market": "a101",
    "lat": 40.99892,
    "lon": 28.649218
  },
  {
    "id": "sok-13777",
    "name": "Enver Adakan Cad",
    "market": "sok",
    "lat": 41.0011,
    "lon": 28.6473
  },
  {
    "id": "bim-U549",
    "name": "Adakent  Beylikdüzü",
    "market": "bim",
    "lat": 41.000275,
    "lon": 28.647722
  },
  {
    "id": "a101-B776",
    "name": "Büyükşehir Beylikdüzü Istanbul",
    "market": "a101",
    "lat": 41.00296,
    "lon": 28.646791
  },
  {
    "id": "a101-J108",
    "name": "Beyaz City Beylikdüzü Istanbul",
    "market": "a101",
    "lat": 40.996674,
    "lon": 28.648125
  },
  {
    "id": "migros-9052",
    "name": "Sürmen Center Beylikdüzü Ist M",
    "market": "migros",
    "lat": 41.000366,
    "lon": 28.647547
  },
  {
    "id": "a101-4802",
    "name": "Ali Çebi Beylikdüzü Istanbul",
    "market": "a101",
    "lat": 41.0016,
    "lon": 28.6516
  },
  {
    "id": "carrefour-3423",
    "name": "Istanbul Beylıkdüzü Semerkand",
    "market": "carrefour",
    "lat": 41.00609,
    "lon": 28.650146
  },
  {
    "id": "bim-U548",
    "name": "Barış  Beylikdüzü",
    "market": "bim",
    "lat": 41.00009,
    "lon": 28.651876
  },
  {
    "id": "sok-6553",
    "name": "Beylikdüzü Megakent",
    "market": "sok",
    "lat": 40.992798,
    "lon": 28.647827
  },
  {
    "id": "bim-U551",
    "name": "Megakent  Beylikdüzü",
    "market": "bim",
    "lat": 40.99319,
    "lon": 28.649332
  },
  {
    "id": "sok-10347",
    "name": "Beylikdüzü Ada",
    "market": "sok",
    "lat": 40.991474,
    "lon": 28.64949
  },
  {
    "id": "sok-638",
    "name": "Ali Çebi",
    "market": "sok",
    "lat": 40.99997,
    "lon": 28.654781
  },
  {
    "id": "a101-K385",
    "name": "Erguvan Beylikdüzü Istanbul",
    "market": "a101",
    "lat": 40.999744,
    "lon": 28.654339
  },
  {
    "id": "bim-U550",
    "name": "Zafer  Beylikdüzü",
    "market": "bim",
    "lat": 41.003796,
    "lon": 28.656961
  },
  {
    "id": "a101-4841",
    "name": "Barış Beylikdüzü Istanbul",
    "market": "a101",
    "lat": 41.003998,
    "lon": 28.656727
  },
  {
    "id": "sok-987",
    "name": "Beylikdüzü Beyaz",
    "market": "sok",
    "lat": 41.005203,
    "lon": 28.65792
  },
  {
    "id": "a101-K122",
    "name": "Aynalı Çarşı Beylikdüzü Istanbul",
    "market": "a101",
    "lat": 41.00598,
    "lon": 28.660282
  },
  {
    "id": "sok-6155",
    "name": "Istanbulbeylikdüzü Çarşı",
    "market": "sok",
    "lat": 41.005585,
    "lon": 28.654964
  },
  {
    "id": "migros-607",
    "name": "5m Beylikdüzü",
    "market": "migros",
    "lat": 41.006844,
    "lon": 28.657429
  },
  {
    "id": "bim-U552",
    "name": "Semerkant  Beylikdüzü",
    "market": "bim",
    "lat": 41.007797,
    "lon": 28.65113
  },
  {
    "id": "sok-4210",
    "name": "Şok Minitaşdemir",
    "market": "sok",
    "lat": 41.00552,
    "lon": 28.66386
  },
  {
    "id": "sok-6727",
    "name": "Beylikdüzü Barış",
    "market": "sok",
    "lat": 41.00638,
    "lon": 28.654625
  },
  {
    "id": "bim-R088",
    "name": "Akyıldız  Beylikdüzü",
    "market": "bim",
    "lat": 40.996983,
    "lon": 28.669634
  },
  {
    "id": "sok-4254",
    "name": "Şok Miniçalışkan",
    "market": "sok",
    "lat": 40.995644,
    "lon": 28.673777
  },
  {
    "id": "sok-537",
    "name": "Beylikdüzü Hasırcılar",
    "market": "sok",
    "lat": 41.006256,
    "lon": 28.664253
  },
  {
    "id": "bim-L559",
    "name": "Kent Ormanı  Beylikdüzü",
    "market": "bim",
    "lat": 41.00414,
    "lon": 28.671268
  },
  {
    "id": "a101-F137",
    "name": "Park Beylikdüzü Istanbul",
    "market": "a101",
    "lat": 40.996723,
    "lon": 28.67315
  },
  {
    "id": "a101-E145",
    "name": "Hakimiyet Beylikdüzü Istanbul",
    "market": "a101",
    "lat": 40.997143,
    "lon": 28.669294
  },
  {
    "id": "bim-T909",
    "name": "Hürriyet  Beylikdüzü",
    "market": "bim",
    "lat": 40.99392,
    "lon": 28.669449
  },
  {
    "id": "tarim_kredi-7191",
    "name": "Istanbul Beylikdüzü Ata",
    "market": "tarim_kredi",
    "lat": 40.99415,
    "lon": 28.67024
  },
  {
    "id": "tarim_kredi-5404",
    "name": "Istanbul Beylikdüzü Yakuplu",
    "market": "tarim_kredi",
    "lat": 41.00416,
    "lon": 28.67169
  },
  {
    "id": "tarim_kredi-7348",
    "name": "Istanbul Beylikdüzü Kubilay",
    "market": "tarim_kredi",
    "lat": 40.99959,
    "lon": 28.67286
  },
  {
    "id": "bim-H843",
    "name": "Hasırcılar  Beylikdüzü",
    "market": "bim",
    "lat": 41.00199,
    "lon": 28.672888
  },
  {
    "id": "sok-193",
    "name": "Istanbul Yakuplu Kubilay",
    "market": "sok",
    "lat": 41.000465,
    "lon": 28.67007
  },
  {
    "id": "sok-13138",
    "name": "Beylikdüzü Yakuplu Park",
    "market": "sok",
    "lat": 40.997604,
    "lon": 28.672594
  },
  {
    "id": "bim-H836",
    "name": "Hakimiyet  Beylikdüzü",
    "market": "bim",
    "lat": 40.99756,
    "lon": 28.676199
  },
  {
    "id": "sok-251",
    "name": "Beylikdüzü Yakuplu Sanc",
    "market": "sok",
    "lat": 41.002087,
    "lon": 28.672989
  },
  {
    "id": "a101-F793",
    "name": "Başkent Beylikdüzü Istanbul",
    "market": "a101",
    "lat": 40.996334,
    "lon": 28.67692
  },
  {
    "id": "a101-H988",
    "name": "Kanuni Beylikdüzü Istanbul",
    "market": "a101",
    "lat": 41.000675,
    "lon": 28.673061
  },
  {
    "id": "bim-Q145",
    "name": "Sancaktar  Beylikdüzü",
    "market": "bim",
    "lat": 40.99654,
    "lon": 28.67406
  },
  {
    "id": "sok-12268",
    "name": "Yakuplu Mert",
    "market": "sok",
    "lat": 40.995235,
    "lon": 28.671513
  },
  {
    "id": "a101-0544",
    "name": "Yeni Sancaktar Beylikdüzü Istanbul",
    "market": "a101",
    "lat": 41.002583,
    "lon": 28.672327
  },
  {
    "id": "a101-D425",
    "name": "Malazgirt Beylikdüzü Istanbul",
    "market": "a101",
    "lat": 40.994102,
    "lon": 28.675283
  },
  {
    "id": "migros-8908",
    "name": "Mjet Haramidere Avcılar Ist",
    "market": "migros",
    "lat": 41.000088,
    "lon": 28.685814
  },
  {
    "id": "migros-3024",
    "name": "5m Torium",
    "market": "migros",
    "lat": 41.0036,
    "lon": 28.687449
  },
  {
    "id": "sok-5388",
    "name": "Yakuplu Malazgirt",
    "market": "sok",
    "lat": 40.99511,
    "lon": 28.677237
  },
  {
    "id": "bim-L169",
    "name": "Hazine  Esenyurt",
    "market": "bim",
    "lat": 41.00797,
    "lon": 28.680964
  },
  {
    "id": "a101-4759",
    "name": "Tonguçbaba Esenyurt Istanbul",
    "market": "a101",
    "lat": 41.00464,
    "lon": 28.690245
  },
  {
    "id": "bim-6984",
    "name": "Tonguçbaba  Esenyurt",
    "market": "bim",
    "lat": 41.00387,
    "lon": 28.691538
  },
  {
    "id": "migros-5751",
    "name": "Hep Istanbul Esenyurt M Migros",
    "market": "migros",
    "lat": 41.008286,
    "lon": 28.68162
  },
  {
    "id": "tarim_kredi-6967",
    "name": "Istanbul Esenyurt Suyolu",
    "market": "tarim_kredi",
    "lat": 41.0052,
    "lon": 28.69272
  },
  {
    "id": "sok-9370",
    "name": "Esenyurt Toryum",
    "market": "sok",
    "lat": 41.00547,
    "lon": 28.68844
  },
  {
    "id": "migros-7603",
    "name": "Suyolu Esenyurt Istanbul M",
    "market": "migros",
    "lat": 41.004513,
    "lon": 28.693415
  },
  {
    "id": "a101-7465",
    "name": "Büyük Arpad Esenyurt Istanbul",
    "market": "a101",
    "lat": 41.002464,
    "lon": 28.694519
  },
  {
    "id": "sok-8624",
    "name": "Esenyurt Su Yolu",
    "market": "sok",
    "lat": 41.00406,
    "lon": 28.693613
  },
  {
    "id": "a101-4839",
    "name": "Orkide Esenyurt",
    "market": "a101",
    "lat": 41.004765,
    "lon": 28.69384
  },
  {
    "id": "bim-K451",
    "name": "Inci  Esenyurt",
    "market": "bim",
    "lat": 41.005676,
    "lon": 28.692207
  },
  {
    "id": "sok-12687",
    "name": "Esenyurt Rıfat",
    "market": "sok",
    "lat": 41.005924,
    "lon": 28.69192
  },
  {
    "id": "a101-I922",
    "name": "Evla Esenyurt Istanbul",
    "market": "a101",
    "lat": 41.006,
    "lon": 28.68807
  },
  {
    "id": "bim-C268",
    "name": "Bereket  Esenyurt",
    "market": "bim",
    "lat": 41.00392,
    "lon": 28.69751
  },
  {
    "id": "bim-Q961",
    "name": "Cingöz  Esenyurt",
    "market": "bim",
    "lat": 41.005013,
    "lon": 28.696293
  },
  {
    "id": "a101-I652",
    "name": "Mango Esenyurt Istanbul",
    "market": "a101",
    "lat": 41.006424,
    "lon": 28.69346
  },
  {
    "id": "sok-12274",
    "name": "Esenyurt Ferhat",
    "market": "sok",
    "lat": 41.003315,
    "lon": 28.698542
  },
  {
    "id": "bim-B623",
    "name": "Anadolu  Beylikdüzü",
    "market": "bim",
    "lat": 41.00348,
    "lon": 28.629515
  },
  {
    "id": "tarim_kredi-5573",
    "name": "Istanbul Esenyurt Turgut Özal",
    "market": "tarim_kredi",
    "lat": 41.0037,
    "lon": 28.69748
  },
  {
    "id": "bim-J473",
    "name": "Derinsu  Esenyurt",
    "market": "bim",
    "lat": 41.00142,
    "lon": 28.698845
  },
  {
    "id": "bim-Q054",
    "name": "Nergis  Avcılar",
    "market": "bim",
    "lat": 41.001324,
    "lon": 28.702354
  },
  {
    "id": "bim-H803",
    "name": "Lale  Avcılar",
    "market": "bim",
    "lat": 41.002872,
    "lon": 28.702265
  },
  {
    "id": "a101-G375",
    "name": "Turgut Özal Esenyurt Istanbul",
    "market": "a101",
    "lat": 41.004536,
    "lon": 28.69739
  },
  {
    "id": "sok-4523",
    "name": "Şok Minimeydan",
    "market": "sok",
    "lat": 41.00439,
    "lon": 28.699331
  },
  {
    "id": "bim-V629",
    "name": "Umut  Beylikdüzü",
    "market": "bim",
    "lat": 41.00775,
    "lon": 28.6254
  },
  {
    "id": "sok-9226",
    "name": "Beylikdüzü Erenler",
    "market": "sok",
    "lat": 41.005764,
    "lon": 28.632256
  },
  {
    "id": "a101-H792",
    "name": "Osmanlı Beylikdüzü Beylikdüzü Istanbul",
    "market": "a101",
    "lat": 41.011196,
    "lon": 28.62705
  },
  {
    "id": "sok-13720",
    "name": "Beylikdüzü Elit",
    "market": "sok",
    "lat": 41.0071,
    "lon": 28.6256
  },
  {
    "id": "a101-B735",
    "name": "Beykent Büyükçekmece Istanbul",
    "market": "a101",
    "lat": 41.008865,
    "lon": 28.624962
  },
  {
    "id": "sok-8269",
    "name": "Büyükçekmece Avrupa Cad",
    "market": "sok",
    "lat": 41.00909,
    "lon": 28.624899
  },
  {
    "id": "bim-B618",
    "name": "Yeşilkent  Bdüzü",
    "market": "bim",
    "lat": 41.00755,
    "lon": 28.631195
  },
  {
    "id": "bim-B626",
    "name": "Tepecik  Büyükçekmece",
    "market": "bim",
    "lat": 41.009575,
    "lon": 28.62978
  },
  {
    "id": "migros-9686",
    "name": "Yaşam Vadisi Beylikdüzü Ist M",
    "market": "migros",
    "lat": 41.009083,
    "lon": 28.633469
  },
  {
    "id": "a101-4774",
    "name": "Konak Beylikdüzüistanbul",
    "market": "a101",
    "lat": 41.011345,
    "lon": 28.632187
  },
  {
    "id": "bim-B650",
    "name": "Bizimkent  Beylikdüzü",
    "market": "bim",
    "lat": 41.01044,
    "lon": 28.64249
  },
  {
    "id": "a101-F024",
    "name": "Erdemli Beylikdüzü Istanbul",
    "market": "a101",
    "lat": 41.01294,
    "lon": 28.634703
  },
  {
    "id": "sok-13058",
    "name": "Beylikdüzü Kameroğlu",
    "market": "sok",
    "lat": 41.014233,
    "lon": 28.637846
  },
  {
    "id": "tarim_kredi-6677",
    "name": "Istanbul Beylikdüzü Cumhuriyet",
    "market": "tarim_kredi",
    "lat": 41.01433,
    "lon": 28.63768
  },
  {
    "id": "bim-V462",
    "name": "Konak  Beylikdüzü",
    "market": "bim",
    "lat": 41.0112,
    "lon": 28.633076
  },
  {
    "id": "migros-3260",
    "name": "Beylikdüzü Ekinoks Mm",
    "market": "migros",
    "lat": 41.012646,
    "lon": 28.644178
  },
  {
    "id": "sok-10260",
    "name": "Beylikdüzü Hekim",
    "market": "sok",
    "lat": 41.01254,
    "lon": 28.646803
  },
  {
    "id": "a101-D879",
    "name": "Semerkand Beylikdüzü Istanbul",
    "market": "a101",
    "lat": 41.005634,
    "lon": 28.650867
  },
  {
    "id": "sok-8211",
    "name": "Beylikdüzü Güner",
    "market": "sok",
    "lat": 41.008934,
    "lon": 28.652918
  },
  {
    "id": "a101-J314",
    "name": "Lavinya Beylikdüzü Istanbul",
    "market": "a101",
    "lat": 41.010006,
    "lon": 28.65274
  },
  {
    "id": "a101-8787",
    "name": "Izmiir Cad Beylikdüzü",
    "market": "a101",
    "lat": 41.009315,
    "lon": 28.65376
  },
  {
    "id": "migros-6008",
    "name": "Inciler Çarşı Esenyurt Ist Mm",
    "market": "migros",
    "lat": 41.01161,
    "lon": 28.654781
  },
  {
    "id": "tarim_kredi-5201",
    "name": "Istanbul Ginza Lavinya Park",
    "market": "tarim_kredi",
    "lat": 41.00973,
    "lon": 28.65268
  },
  {
    "id": "sok-10802",
    "name": "Beylikdüzü Bakırcılar",
    "market": "sok",
    "lat": 41.006218,
    "lon": 28.661293
  },
  {
    "id": "carrefour-1052",
    "name": "Istanbul Beylıkdüzü Marmara Pa",
    "market": "carrefour",
    "lat": 41.010983,
    "lon": 28.659197
  },
  {
    "id": "bim-O527",
    "name": "Botanica  Esenyurt",
    "market": "bim",
    "lat": 41.010887,
    "lon": 28.661928
  },
  {
    "id": "bim-4624",
    "name": "Haramidere  Esenyurt",
    "market": "bim",
    "lat": 41.010822,
    "lon": 28.6672
  },
  {
    "id": "migros-4460",
    "name": "Gülpark Esenyurt Mm Migros",
    "market": "migros",
    "lat": 41.009052,
    "lon": 28.669008
  },
  {
    "id": "a101-J689",
    "name": "Deltaesenyurt Esenyurt Istanbul",
    "market": "a101",
    "lat": 41.0105,
    "lon": 28.675207
  },
  {
    "id": "bim-T308",
    "name": "Nene Hatun  Esenyurt",
    "market": "bim",
    "lat": 41.011303,
    "lon": 28.668337
  },
  {
    "id": "bim-T414",
    "name": "Nilüfer  Esenyurt",
    "market": "bim",
    "lat": 41.010536,
    "lon": 28.669176
  },
  {
    "id": "sok-5786",
    "name": "Esenyurt Ertuğrul Gazi",
    "market": "sok",
    "lat": 41.009045,
    "lon": 28.667343
  },
  {
    "id": "carrefour-5264",
    "name": "Istanbul Esenyurt Mılpark Mını",
    "market": "carrefour",
    "lat": 41.012615,
    "lon": 28.67214
  },
  {
    "id": "a101-5437",
    "name": "Güzelyurt Esenyurt Istanbul",
    "market": "a101",
    "lat": 41.01069,
    "lon": 28.6663
  },
  {
    "id": "a101-8657",
    "name": "Asrın Esenyurt Istan",
    "market": "a101",
    "lat": 41.013645,
    "lon": 28.668428
  },
  {
    "id": "carrefour-3660",
    "name": "Istanbul Esenyurt Self",
    "market": "carrefour",
    "lat": 41.0124,
    "lon": 28.679314
  },
  {
    "id": "sok-13944",
    "name": "Esenyurt Regnum",
    "market": "sok",
    "lat": 41.013844,
    "lon": 28.677938
  },
  {
    "id": "a101-F723",
    "name": "Solarkent Esenyurt Istanbul",
    "market": "a101",
    "lat": 41.01467,
    "lon": 28.678003
  },
  {
    "id": "a101-H326",
    "name": "Marmara Esenyurt Istanbul",
    "market": "a101",
    "lat": 41.007843,
    "lon": 28.690989
  },
  {
    "id": "bim-B707",
    "name": "Orkide  Esenyurt",
    "market": "bim",
    "lat": 41.007484,
    "lon": 28.691984
  },
  {
    "id": "bim-4524",
    "name": "Parseller  Esenyurt",
    "market": "bim",
    "lat": 41.008743,
    "lon": 28.693924
  },
  {
    "id": "bim-U014",
    "name": "Namık Kemal  Esenyurt",
    "market": "bim",
    "lat": 41.010216,
    "lon": 28.694405
  },
  {
    "id": "migros-7124",
    "name": "Prestij Park Esenyurt Ist M",
    "market": "migros",
    "lat": 41.01292,
    "lon": 28.685747
  },
  {
    "id": "sok-565",
    "name": "Esenyurt Prestij Park",
    "market": "sok",
    "lat": 41.013058,
    "lon": 28.684393
  },
  {
    "id": "sok-3136",
    "name": "Esenyurt Saadetdere",
    "market": "sok",
    "lat": 41.005013,
    "lon": 28.69748
  },
  {
    "id": "sok-8622",
    "name": "Esenyurt Yılmaz",
    "market": "sok",
    "lat": 41.003365,
    "lon": 28.696812
  },
  {
    "id": "migros-7823",
    "name": "Fıruzköy Collet Avcılar Ist M",
    "market": "migros",
    "lat": 41.011936,
    "lon": 28.699745
  },
  {
    "id": "a101-E041",
    "name": "Alemdağ Beylikdüzü Istanbul",
    "market": "a101",
    "lat": 41.0148,
    "lon": 28.627213
  },
  {
    "id": "migros-3058",
    "name": "Perla Vısta Beykent Mmm Mıgros",
    "market": "migros",
    "lat": 41.015785,
    "lon": 28.627657
  },
  {
    "id": "sok-3303",
    "name": "Büyükçekmece Milenyum",
    "market": "sok",
    "lat": 41.01887,
    "lon": 28.62754
  },
  {
    "id": "migros-7042",
    "name": "First Avenue Avm Istanbul Mmm",
    "market": "migros",
    "lat": 41.01961,
    "lon": 28.62758
  },
  {
    "id": "sok-3574",
    "name": "Beylikdüzü Öztürk",
    "market": "sok",
    "lat": 41.00491,
    "lon": 28.621275
  },
  {
    "id": "a101-B212",
    "name": "Parmaksız Büyükçekmece Istanbul",
    "market": "a101",
    "lat": 41.012726,
    "lon": 28.609678
  },
  {
    "id": "sok-1110",
    "name": "Büyükçekmece Sedef",
    "market": "sok",
    "lat": 41.011997,
    "lon": 28.608961
  },
  {
    "id": "bim-B644",
    "name": "Simay  Beylikdüzü",
    "market": "bim",
    "lat": 41.013237,
    "lon": 28.632908
  },
  {
    "id": "bim-L721",
    "name": "Onur  Beylikdüzü",
    "market": "bim",
    "lat": 41.013268,
    "lon": 28.636093
  },
  {
    "id": "a101-H708",
    "name": "Kameroğlu Beylikdüzü Beylikdüzü Istanbul",
    "market": "a101",
    "lat": 41.014137,
    "lon": 28.638212
  },
  {
    "id": "migros-9568",
    "name": "Empire Esenyurt Istanbul Mm",
    "market": "migros",
    "lat": 41.0196,
    "lon": 28.632498
  },
  {
    "id": "sok-10346",
    "name": "Esenyurt Akros",
    "market": "sok",
    "lat": 41.0158,
    "lon": 28.641445
  },
  {
    "id": "sok-9576",
    "name": "Esenyurt Iski",
    "market": "sok",
    "lat": 41.01831,
    "lon": 28.639343
  },
  {
    "id": "carrefour-3506",
    "name": "Istanbul Beylıkdüzü Türkbüküev",
    "market": "carrefour",
    "lat": 41.01947,
    "lon": 28.638107
  },
  {
    "id": "a101-B744",
    "name": "Beylicium Esenyurt Istanbul",
    "market": "a101",
    "lat": 41.011715,
    "lon": 28.649553
  },
  {
    "id": "a101-K062",
    "name": "Mevlana Esenyurt Istanbul",
    "market": "a101",
    "lat": 41.015003,
    "lon": 28.650347
  },
  {
    "id": "a101-H256",
    "name": "Cumhuriyet Beylikdüzü Istanbul",
    "market": "a101",
    "lat": 41.01279,
    "lon": 28.646107
  },
  {
    "id": "migros-7198",
    "name": "Bulvar Evleri Esenyurt M",
    "market": "migros",
    "lat": 41.016,
    "lon": 28.6482
  },
  {
    "id": "sok-5787",
    "name": "Esenyurt Nazım Hikmet",
    "market": "sok",
    "lat": 41.01744,
    "lon": 28.646574
  },
  {
    "id": "bim-Q154",
    "name": "Beycenter  Esenyurt",
    "market": "bim",
    "lat": 41.015934,
    "lon": 28.647236
  },
  {
    "id": "sok-2699",
    "name": "Beylikdüzü Bey Center",
    "market": "sok",
    "lat": 41.016,
    "lon": 28.6468
  },
  {
    "id": "bim-7936",
    "name": "Esenbahçe  Esenyurt",
    "market": "bim",
    "lat": 41.017395,
    "lon": 28.647432
  },
  {
    "id": "migros-4362",
    "name": "Newista Mmm Migros",
    "market": "migros",
    "lat": 41.017166,
    "lon": 28.645842
  },
  {
    "id": "a101-E565",
    "name": "Hanevleri Esenyurt Istanbul",
    "market": "a101",
    "lat": 41.0193,
    "lon": 28.64594
  },
  {
    "id": "sok-10148",
    "name": "Esenyurt Güneş",
    "market": "sok",
    "lat": 41.017105,
    "lon": 28.64291
  },
  {
    "id": "carrefour-5120",
    "name": "Istanbul Papatya Resıdence Mın",
    "market": "carrefour",
    "lat": 41.01856,
    "lon": 28.643549
  },
  {
    "id": "a101-E841",
    "name": "Barbaros Hayrettin Esenyurt Istanbu",
    "market": "a101",
    "lat": 41.01777,
    "lon": 28.640821
  },
  {
    "id": "bim-R715",
    "name": "Puket  Esenyurt",
    "market": "bim",
    "lat": 41.01783,
    "lon": 28.639793
  },
  {
    "id": "bim-L362",
    "name": "Altun  Esenyurt",
    "market": "bim",
    "lat": 41.02019,
    "lon": 28.64087
  },
  {
    "id": "migros-4879",
    "name": "Demir Romance Beylikdüzü Mm",
    "market": "migros",
    "lat": 41.015068,
    "lon": 28.63561
  },
  {
    "id": "migros-5795",
    "name": "Mjet Ayışığı Butik Esenyurt",
    "market": "migros",
    "lat": 41.02086,
    "lon": 28.63889
  },
  {
    "id": "a101-I187",
    "name": "Inci Esenyurt Istanbul",
    "market": "a101",
    "lat": 41.0126,
    "lon": 28.6542
  },
  {
    "id": "bim-4525",
    "name": "Güzelyurt  Esenyurt",
    "market": "bim",
    "lat": 41.014473,
    "lon": 28.654108
  },
  {
    "id": "sok-6442",
    "name": "Güzelyurt Yakuplu",
    "market": "sok",
    "lat": 41.0145,
    "lon": 28.6543
  },
  {
    "id": "bim-G993",
    "name": "Erem  Esenyurt",
    "market": "bim",
    "lat": 41.01514,
    "lon": 28.651165
  },
  {
    "id": "migros-4142",
    "name": "Beylikdüzü Cadde Mm Migros",
    "market": "migros",
    "lat": 41.016075,
    "lon": 28.652124
  },
  {
    "id": "bim-B977",
    "name": "Babacan  Esenyurt",
    "market": "bim",
    "lat": 41.016273,
    "lon": 28.655275
  },
  {
    "id": "tarim_kredi-6986",
    "name": "Istanbul Esenyurt Barbaros Hayrettin",
    "market": "tarim_kredi",
    "lat": 41.0211,
    "lon": 28.64426
  },
  {
    "id": "carrefour-5479",
    "name": "Istanbul Esenyurt Innovıa 2",
    "market": "carrefour",
    "lat": 41.019993,
    "lon": 28.656649
  },
  {
    "id": "sok-2735",
    "name": "Esenyurt Güzelyurt Yıld",
    "market": "sok",
    "lat": 41.010605,
    "lon": 28.664349
  },
  {
    "id": "sok-8203",
    "name": "Esenyurt Ufuk Caddesi",
    "market": "sok",
    "lat": 41.01449,
    "lon": 28.665422
  },
  {
    "id": "sok-3314",
    "name": "Esenyurt Aybüke",
    "market": "sok",
    "lat": 41.01393,
    "lon": 28.66186
  },
  {
    "id": "sok-452",
    "name": "Esenyurt Botanıca",
    "market": "sok",
    "lat": 41.01085,
    "lon": 28.66187
  },
  {
    "id": "sok-8049",
    "name": "Esenyurt Ersoy",
    "market": "sok",
    "lat": 41.014137,
    "lon": 28.668491
  },
  {
    "id": "a101-I363",
    "name": "Vefa Esenyurt Istanbul",
    "market": "a101",
    "lat": 41.014317,
    "lon": 28.662851
  },
  {
    "id": "a101-7258",
    "name": "Topuz Esenyurt Istanbul",
    "market": "a101",
    "lat": 41.015778,
    "lon": 28.660925
  },
  {
    "id": "bim-8418",
    "name": "Millet  Esenyurt",
    "market": "bim",
    "lat": 41.01506,
    "lon": 28.663061
  },
  {
    "id": "bim-5078",
    "name": "Mehterçeşme  Esenyurt",
    "market": "bim",
    "lat": 41.017212,
    "lon": 28.661486
  },
  {
    "id": "bim-U750",
    "name": "Kardelen  Esenyurt",
    "market": "bim",
    "lat": 41.014893,
    "lon": 28.665215
  },
  {
    "id": "tarim_kredi-7260",
    "name": "Istanbul Esenyurt Mehmet Akif Ersoy",
    "market": "tarim_kredi",
    "lat": 41.01906,
    "lon": 28.66693
  },
  {
    "id": "bim-B251",
    "name": "Izyap  Esenyurt",
    "market": "bim",
    "lat": 41.01524,
    "lon": 28.668612
  },
  {
    "id": "bim-B715",
    "name": "Ufuk  Esenyurt",
    "market": "bim",
    "lat": 41.013927,
    "lon": 28.666563
  },
  {
    "id": "a101-F329",
    "name": "Yıldırım Beyazıt Esenyurt Istanbul",
    "market": "a101",
    "lat": 41.011017,
    "lon": 28.663609
  },
  {
    "id": "migros-9646",
    "name": "Sembol Çarşı Haramidere Ist M",
    "market": "migros",
    "lat": 41.016136,
    "lon": 28.680838
  },
  {
    "id": "a101-C546",
    "name": "Prestij Esenyurt Istanbul",
    "market": "a101",
    "lat": 41.01301,
    "lon": 28.685902
  },
  {
    "id": "a101-F068",
    "name": "Adile Naşit Esenyurt Istanbul",
    "market": "a101",
    "lat": 41.01634,
    "lon": 28.682514
  },
  {
    "id": "bim-H318",
    "name": "Gençbay  Esenyurt",
    "market": "bim",
    "lat": 41.01291,
    "lon": 28.68453
  },
  {
    "id": "sok-13215",
    "name": "Esenyurt Sembol Sitesi",
    "market": "sok",
    "lat": 41.017605,
    "lon": 28.680563
  },
  {
    "id": "bim-O059",
    "name": "Sevalista  Esenyurt",
    "market": "bim",
    "lat": 41.015743,
    "lon": 28.68231
  },
  {
    "id": "a101-4856",
    "name": "Rıfat Ilgaz Esenyurt Istanbul",
    "market": "a101",
    "lat": 41.019344,
    "lon": 28.684101
  },
  {
    "id": "sok-6847",
    "name": "Esenyurt N Towers",
    "market": "sok",
    "lat": 41.017593,
    "lon": 28.67267
  },
  {
    "id": "sok-1487",
    "name": "Istanbul Esenyurt Çetink",
    "market": "sok",
    "lat": 41.021004,
    "lon": 28.67511
  },
  {
    "id": "a101-8846",
    "name": "Sefa Esenyurt Istanbul",
    "market": "a101",
    "lat": 41.01055,
    "lon": 28.692904
  },
  {
    "id": "sok-12405",
    "name": "Esenyurt Üniversite",
    "market": "sok",
    "lat": 41.019936,
    "lon": 28.687958
  },
  {
    "id": "migros-5700",
    "name": "Citycenter Esenyurt Ist Mm",
    "market": "migros",
    "lat": 41.020245,
    "lon": 28.687492
  },
  {
    "id": "bim-A194",
    "name": "Rıfat Ilgaz  Esenyurt",
    "market": "bim",
    "lat": 41.019478,
    "lon": 28.683897
  },
  {
    "id": "bim-K074",
    "name": "Öztürk  Esenyurt",
    "market": "bim",
    "lat": 41.014492,
    "lon": 28.696363
  },
  {
    "id": "sok-6478",
    "name": "Fevziçakmak",
    "market": "sok",
    "lat": 41.01043,
    "lon": 28.695517
  },
  {
    "id": "bim-P535",
    "name": "Güneşcem  Esenyurt",
    "market": "bim",
    "lat": 41.015438,
    "lon": 28.689537
  },
  {
    "id": "a101-9535",
    "name": "Atalay Cad Esenyurt Istanbul",
    "market": "a101",
    "lat": 41.02067,
    "lon": 28.694714
  },
  {
    "id": "a101-H721",
    "name": "Okurlar Esenyurt Istanbul",
    "market": "a101",
    "lat": 41.017387,
    "lon": 28.695047
  },
  {
    "id": "sok-13080",
    "name": "Avcılar Duran",
    "market": "sok",
    "lat": 41.014576,
    "lon": 28.706709
  },
  {
    "id": "tarim_kredi-6232",
    "name": "Istanbul Avcılar Firüzköy",
    "market": "tarim_kredi",
    "lat": 41.0179,
    "lon": 28.70316
  },
  {
    "id": "sok-2966",
    "name": "Istanbul Esenyurt Ikizler",
    "market": "sok",
    "lat": 41.02468,
    "lon": 28.629154
  },
  {
    "id": "carrefour-5111",
    "name": "Istanbul Esenyurt Tüyap Mını",
    "market": "carrefour",
    "lat": 41.02497,
    "lon": 28.628036
  },
  {
    "id": "bim-D081",
    "name": "Ikizkonaklar  Esenyurt",
    "market": "bim",
    "lat": 41.023907,
    "lon": 28.630127
  },
  {
    "id": "sok-9734",
    "name": "Esenyurt Kristal Şehir",
    "market": "sok",
    "lat": 41.02274,
    "lon": 28.635523
  },
  {
    "id": "bim-4836",
    "name": "Prestij  Esenyurt",
    "market": "bim",
    "lat": 41.020927,
    "lon": 28.636694
  },
  {
    "id": "bim-R714",
    "name": "Ödül  Esenyurt",
    "market": "bim",
    "lat": 41.023663,
    "lon": 28.636242
  },
  {
    "id": "carrefour-3640",
    "name": "Istanbul Esenyurt Ödül",
    "market": "carrefour",
    "lat": 41.02351,
    "lon": 28.636387
  },
  {
    "id": "a101-B941",
    "name": "Kristal Şehir Esenyurt Istanbul",
    "market": "a101",
    "lat": 41.022835,
    "lon": 28.635199
  },
  {
    "id": "sok-13820",
    "name": "Esenyurt Ödül Istanbul",
    "market": "sok",
    "lat": 41.024174,
    "lon": 28.63638
  },
  {
    "id": "sok-12608",
    "name": "Esenyurt Burç",
    "market": "sok",
    "lat": 41.021717,
    "lon": 28.630804
  },
  {
    "id": "a101-4737",
    "name": "Mesut Petek Esenyurt Istanbul",
    "market": "a101",
    "lat": 41.018692,
    "lon": 28.639183
  },
  {
    "id": "sok-6344",
    "name": "Esenyurt Ekecik",
    "market": "sok",
    "lat": 41.019726,
    "lon": 28.651394
  },
  {
    "id": "sok-7335",
    "name": "Esenyurt Cumhuriyet Mah",
    "market": "sok",
    "lat": 41.01888,
    "lon": 28.650501
  },
  {
    "id": "bim-B275",
    "name": "Ayısıgı  Esenyurt",
    "market": "bim",
    "lat": 41.022163,
    "lon": 28.64099
  },
  {
    "id": "a101-D989",
    "name": "Arena Esenyurt Istanbul",
    "market": "a101",
    "lat": 41.023323,
    "lon": 28.64174
  },
  {
    "id": "bim-D635",
    "name": "Beytepe  Esenyurt",
    "market": "bim",
    "lat": 41.020985,
    "lon": 28.645784
  },
  {
    "id": "migros-6048",
    "name": "Metropol Center Esenyurt Mm",
    "market": "migros",
    "lat": 41.01892,
    "lon": 28.648582
  },
  {
    "id": "a101-H728",
    "name": "Necip Fazıl Esenyurt Esenyurt Istanbul",
    "market": "a101",
    "lat": 41.021194,
    "lon": 28.64614
  },
  {
    "id": "a101-F361",
    "name": "Pusula Esenyurt Istanbul",
    "market": "a101",
    "lat": 41.02381,
    "lon": 28.644758
  },
  {
    "id": "a101-4821",
    "name": "Nazım Hikmet Esenyurt Istanbul",
    "market": "a101",
    "lat": 41.01895,
    "lon": 28.648228
  },
  {
    "id": "bim-K409",
    "name": "Kılıçbey  Esenyurt",
    "market": "bim",
    "lat": 41.018528,
    "lon": 28.665865
  },
  {
    "id": "a101-4796",
    "name": "Bağdat Esenyurt Istanbul",
    "market": "a101",
    "lat": 41.017593,
    "lon": 28.665207
  },
  {
    "id": "a101-H141",
    "name": "Mertlife Esenyurt Istanbul",
    "market": "a101",
    "lat": 41.018883,
    "lon": 28.667044
  },
  {
    "id": "bim-B739",
    "name": "Aktürk  Esenyurt",
    "market": "bim",
    "lat": 41.01839,
    "lon": 28.662159
  },
  {
    "id": "a101-C321",
    "name": "Göksu Esenyurt Istanbul",
    "market": "a101",
    "lat": 41.01696,
    "lon": 28.666983
  },
  {
    "id": "bim-P721",
    "name": "Bağdat  Esenyurt",
    "market": "bim",
    "lat": 41.016445,
    "lon": 28.663809
  },
  {
    "id": "bim-T267",
    "name": "Gaziler  Esenyurt",
    "market": "bim",
    "lat": 41.019337,
    "lon": 28.668139
  },
  {
    "id": "a101-4832",
    "name": "Mehterçeşme Esenyurt",
    "market": "a101",
    "lat": 41.01909,
    "lon": 28.66102
  },
  {
    "id": "sok-11314",
    "name": "Esenyurt Bağdat",
    "market": "sok",
    "lat": 41.018402,
    "lon": 28.665615
  },
  {
    "id": "sok-9484",
    "name": "Istanbul Esenyurt Madenci",
    "market": "sok",
    "lat": 41.01824,
    "lon": 28.661924
  },
  {
    "id": "sok-9188",
    "name": "Esenyurt Demir",
    "market": "sok",
    "lat": 41.023796,
    "lon": 28.66434
  },
  {
    "id": "tarim_kredi-5320",
    "name": "Istanbul Esenyurt Talatpaşa",
    "market": "tarim_kredi",
    "lat": 41.02274,
    "lon": 28.67009
  },
  {
    "id": "sok-13983",
    "name": "Esenyurt Akevler",
    "market": "sok",
    "lat": 41.022198,
    "lon": 28.675964
  },
  {
    "id": "tarim_kredi-6231",
    "name": "Istanbul Esenyurt Ünverdi",
    "market": "tarim_kredi",
    "lat": 41.02632,
    "lon": 28.67521
  },
  {
    "id": "bim-L361",
    "name": "Başyapıt  Esenyurt",
    "market": "bim",
    "lat": 41.02167,
    "lon": 28.68379
  },
  {
    "id": "a101-G880",
    "name": "Üniversite Esenyurt Istanbul",
    "market": "a101",
    "lat": 41.020824,
    "lon": 28.686739
  },
  {
    "id": "a101-H075",
    "name": "Elit Esenyurt Istanbul",
    "market": "a101",
    "lat": 41.023098,
    "lon": 28.677711
  },
  {
    "id": "bim-H861",
    "name": "Tabela  Esenyurt",
    "market": "bim",
    "lat": 41.02255,
    "lon": 28.687956
  },
  {
    "id": "a101-I478",
    "name": "Sağlık Ocağı Esenyurt Istanbul",
    "market": "a101",
    "lat": 41.02054,
    "lon": 28.69013
  },
  {
    "id": "bim-A671",
    "name": "Hanoğlu  Esenyurt",
    "market": "bim",
    "lat": 41.022503,
    "lon": 28.67926
  },
  {
    "id": "sok-320",
    "name": "Istanbul Esenyurt Atak",
    "market": "sok",
    "lat": 41.024307,
    "lon": 28.686914
  },
  {
    "id": "carrefour-5374",
    "name": "Istanbul Esenyurt Doğan Araslı",
    "market": "carrefour",
    "lat": 41.02455,
    "lon": 28.685131
  },
  {
    "id": "tarim_kredi-7345",
    "name": "Istanbul Esenyurt Belde",
    "market": "tarim_kredi",
    "lat": 41.02422,
    "lon": 28.68775
  },
  {
    "id": "tarim_kredi-7267",
    "name": "Istanbul Esenyurt Incirtepe",
    "market": "tarim_kredi",
    "lat": 41.02374,
    "lon": 28.69234
  },
  {
    "id": "bim-H874",
    "name": "Destan  Esenyurt",
    "market": "bim",
    "lat": 41.0229,
    "lon": 28.692823
  },
  {
    "id": "bim-H869",
    "name": "Incirtepe  Esenyurt",
    "market": "bim",
    "lat": 41.02234,
    "lon": 28.694729
  },
  {
    "id": "a101-F265",
    "name": "Plaza Esenyurt Istanbul",
    "market": "a101",
    "lat": 41.02374,
    "lon": 28.68635
  },
  {
    "id": "sok-7721",
    "name": "Esenyurt Aşık Mahsuni",
    "market": "sok",
    "lat": 41.014347,
    "lon": 28.696438
  },
  {
    "id": "bim-H870",
    "name": "Okurlar  Esenyurt",
    "market": "bim",
    "lat": 41.023117,
    "lon": 28.69737
  },
  {
    "id": "bim-T096",
    "name": "Erenler  Esenyurt",
    "market": "bim",
    "lat": 41.013596,
    "lon": 28.695036
  },
  {
    "id": "a101-B494",
    "name": "Yılmaz Esenyurt Istanbul",
    "market": "a101",
    "lat": 41.02464,
    "lon": 28.692305
  },
  {
    "id": "a101-B358",
    "name": "Firuzköy Avcılar Istanbul",
    "market": "a101",
    "lat": 41.013714,
    "lon": 28.703613
  },
  {
    "id": "sok-5788",
    "name": "Esenyurt Hürriyet",
    "market": "sok",
    "lat": 41.02317,
    "lon": 28.69071
  },
  {
    "id": "sok-10517",
    "name": "Esenyurt Avni Anıl",
    "market": "sok",
    "lat": 41.027046,
    "lon": 28.69607
  },
  {
    "id": "sok-5617",
    "name": "Esenyurt Incirtepe",
    "market": "sok",
    "lat": 41.02251,
    "lon": 28.697077
  },
  {
    "id": "sok-6955",
    "name": "Esenyurt Tüyap",
    "market": "sok",
    "lat": 41.026184,
    "lon": 28.627111
  },
  {
    "id": "sok-6881",
    "name": "Esenyurt Kazım Karabekir",
    "market": "sok",
    "lat": 41.024014,
    "lon": 28.64445
  },
  {
    "id": "sok-7701",
    "name": "Esenyurt Ayışığı",
    "market": "sok",
    "lat": 41.023506,
    "lon": 28.642363
  },
  {
    "id": "sok-8959",
    "name": "Esenyurt Kartal",
    "market": "sok",
    "lat": 41.02072,
    "lon": 28.641523
  },
  {
    "id": "sok-3467",
    "name": "Esenyurt Mertcan",
    "market": "sok",
    "lat": 41.021416,
    "lon": 28.648396
  },
  {
    "id": "bim-Q676",
    "name": "Papatya  Esenyurt",
    "market": "bim",
    "lat": 41.019955,
    "lon": 28.648201
  },
  {
    "id": "a101-H915",
    "name": "Delta Esenyurt Istanbul",
    "market": "a101",
    "lat": 41.019775,
    "lon": 28.648726
  },
  {
    "id": "bim-K508",
    "name": "Ebruli  Esenyurt",
    "market": "bim",
    "lat": 41.024048,
    "lon": 28.648697
  },
  {
    "id": "sok-10053",
    "name": "Esenyurt Ocak",
    "market": "sok",
    "lat": 41.019493,
    "lon": 28.648958
  },
  {
    "id": "bim-T795",
    "name": "Öncü  Esenyurt",
    "market": "bim",
    "lat": 41.031925,
    "lon": 28.647346
  },
  {
    "id": "tarim_kredi-5403",
    "name": "Istanbul Esenyurt Nfazıl Kısakürek",
    "market": "tarim_kredi",
    "lat": 41.03279,
    "lon": 28.64779
  },
  {
    "id": "bim-T793",
    "name": "Önay esenyurt",
    "market": "bim",
    "lat": 41.023907,
    "lon": 28.660088
  },
  {
    "id": "a101-G144",
    "name": "Reyap Esenyurt Istanbul",
    "market": "a101",
    "lat": 41.026737,
    "lon": 28.65898
  },
  {
    "id": "a101-E588",
    "name": "Yeşilkent Esenyurt Istanbul",
    "market": "a101",
    "lat": 41.025726,
    "lon": 28.662514
  },
  {
    "id": "bim-B015",
    "name": "Sağlıkçılar  Esenyurt",
    "market": "bim",
    "lat": 41.026073,
    "lon": 28.662394
  },
  {
    "id": "bim-G756",
    "name": "Karamurat  Esenyurt",
    "market": "bim",
    "lat": 41.021774,
    "lon": 28.660568
  },
  {
    "id": "sok-474",
    "name": "Istanbul Esenyurt Vizyon",
    "market": "sok",
    "lat": 41.028576,
    "lon": 28.661423
  },
  {
    "id": "a101-D748",
    "name": "Kılıç Esenyurt Istanbul",
    "market": "a101",
    "lat": 41.021023,
    "lon": 28.659664
  },
  {
    "id": "bim-D728",
    "name": "Yasemin  Esenyurt",
    "market": "bim",
    "lat": 41.02823,
    "lon": 28.653702
  },
  {
    "id": "a101-H719",
    "name": "Baltacı Esenyurt Istanbul",
    "market": "a101",
    "lat": 41.029984,
    "lon": 28.659073
  },
  {
    "id": "a101-0654",
    "name": "Ali Rıza Esenyurt Istanbul",
    "market": "a101",
    "lat": 41.027866,
    "lon": 28.652544
  },
  {
    "id": "sok-5544",
    "name": "Esenyurt Mehterçeşme",
    "market": "sok",
    "lat": 41.019527,
    "lon": 28.6584
  },
  {
    "id": "bim-O471",
    "name": "Bulut  Esenyurt",
    "market": "bim",
    "lat": 41.019363,
    "lon": 28.65406
  },
  {
    "id": "a101-6895",
    "name": "Kent Esenyurt Istanbul ",
    "market": "a101",
    "lat": 41.023712,
    "lon": 28.664768
  },
  {
    "id": "bim-6873",
    "name": "Necip Fazıl  Esenyurt",
    "market": "bim",
    "lat": 41.023804,
    "lon": 28.664955
  },
  {
    "id": "sok-8493",
    "name": "Esenyurt Şehitler",
    "market": "sok",
    "lat": 41.03249,
    "lon": 28.66083
  },
  {
    "id": "bim-D265",
    "name": "Sar  Esenyurt",
    "market": "bim",
    "lat": 41.02686,
    "lon": 28.670395
  },
  {
    "id": "migros-7609",
    "name": "19 Mayıs Esenyurt Istanbul M",
    "market": "migros",
    "lat": 41.03097,
    "lon": 28.671503
  },
  {
    "id": "a101-B762",
    "name": "Pazar Yolu Esenyurt Istanbul",
    "market": "a101",
    "lat": 41.02607,
    "lon": 28.673292
  },
  {
    "id": "bim-V228",
    "name": "Fatih Sultan Mehmet  Esenyurt",
    "market": "bim",
    "lat": 41.023235,
    "lon": 28.671642
  },
  {
    "id": "a101-C704",
    "name": "Alparslan Esenyurt Istanbul",
    "market": "a101",
    "lat": 41.02484,
    "lon": 28.674957
  },
  {
    "id": "bim-V368",
    "name": "Akgün  Esenyurt",
    "market": "bim",
    "lat": 41.02462,
    "lon": 28.674938
  },
  {
    "id": "bim-K358",
    "name": "Hasbahçe  Esenyurt",
    "market": "bim",
    "lat": 41.022533,
    "lon": 28.669737
  },
  {
    "id": "a101-E517",
    "name": "Şehitler Parkı Esenyurt Istanbul",
    "market": "a101",
    "lat": 41.02247,
    "lon": 28.669306
  },
  {
    "id": "a101-5266",
    "name": "Ünverdi Esenyurt Istanbul",
    "market": "a101",
    "lat": 41.0266,
    "lon": 28.675253
  },
  {
    "id": "sok-11468",
    "name": "Esenyurt Bahçeyolu",
    "market": "sok",
    "lat": 41.027405,
    "lon": 28.681976
  },
  {
    "id": "bim-B213",
    "name": "Ünverdi  Esenyurt",
    "market": "bim",
    "lat": 41.02786,
    "lon": 28.675152
  },
  {
    "id": "sok-4312",
    "name": "Şok Minipazaryolu",
    "market": "sok",
    "lat": 41.026524,
    "lon": 28.67247
  },
  {
    "id": "sok-13726",
    "name": "Esenyurt Kültür",
    "market": "sok",
    "lat": 41.028133,
    "lon": 28.681973
  },
  {
    "id": "sok-8040",
    "name": "Esenyurt Üç Evler",
    "market": "sok",
    "lat": 41.02851,
    "lon": 28.681648
  },
  {
    "id": "sok-5761",
    "name": "Esenyurt Fatih",
    "market": "sok",
    "lat": 41.028706,
    "lon": 28.677332
  },
  {
    "id": "sok-11624",
    "name": "Esenyurt Doğan Aras",
    "market": "sok",
    "lat": 41.0255,
    "lon": 28.684479
  },
  {
    "id": "a101-B861",
    "name": "Avşar Esenyurt Istanbul",
    "market": "a101",
    "lat": 41.025,
    "lon": 28.678802
  },
  {
    "id": "bim-7758",
    "name": "Fatih  Esenyurt",
    "market": "bim",
    "lat": 41.027245,
    "lon": 28.678658
  },
  {
    "id": "sok-13882",
    "name": "Esenyurt Inönü",
    "market": "sok",
    "lat": 41.0276,
    "lon": 28.6841
  },
  {
    "id": "a101-8416",
    "name": "Urfalılar Cad",
    "market": "a101",
    "lat": 41.02762,
    "lon": 28.678263
  },
  {
    "id": "bim-T210",
    "name": "Istasyon  Esenyurt",
    "market": "bim",
    "lat": 41.02124,
    "lon": 28.677353
  },
  {
    "id": "migros-7899",
    "name": "Üçevler Mh Esenyurt Istanbul M",
    "market": "migros",
    "lat": 41.030983,
    "lon": 28.68124
  },
  {
    "id": "bim-T425",
    "name": "Iski  Esenyurt",
    "market": "bim",
    "lat": 41.024273,
    "lon": 28.686264
  },
  {
    "id": "bim-H858",
    "name": "Sefaş  Esenyurt",
    "market": "bim",
    "lat": 41.02702,
    "lon": 28.686357
  },
  {
    "id": "bim-H846",
    "name": "Inönü  Esenyurt",
    "market": "bim",
    "lat": 41.02441,
    "lon": 28.68942
  },
  {
    "id": "a101-D245",
    "name": "Paşa Esenyurt Istanbul",
    "market": "a101",
    "lat": 41.024487,
    "lon": 28.689299
  },
  {
    "id": "bim-U878",
    "name": "Elif  Esenyurt",
    "market": "bim",
    "lat": 41.02598,
    "lon": 28.689585
  },
  {
    "id": "bim-U015",
    "name": "Kemalpaşa  Esenyurt",
    "market": "bim",
    "lat": 41.0233,
    "lon": 28.689978
  },
  {
    "id": "bim-H852",
    "name": "Mandıra  Esenyurt",
    "market": "bim",
    "lat": 41.026905,
    "lon": 28.690695
  },
  {
    "id": "bim-H875",
    "name": "Efsane  Esenyurt",
    "market": "bim",
    "lat": 41.02646,
    "lon": 28.692646
  },
  {
    "id": "a101-4801",
    "name": "Mandıra Esenyurt Istanbul",
    "market": "a101",
    "lat": 41.027218,
    "lon": 28.689405
  },
  {
    "id": "sok-8292",
    "name": "Esenyurt Mandıra",
    "market": "sok",
    "lat": 41.02702,
    "lon": 28.688807
  },
  {
    "id": "a101-4751",
    "name": "Incirtepe Esenyurt Istanbul",
    "market": "a101",
    "lat": 41.022293,
    "lon": 28.690903
  },
  {
    "id": "sok-4551",
    "name": "Şok Miniceylan",
    "market": "sok",
    "lat": 41.02899,
    "lon": 28.692415
  },
  {
    "id": "tarim_kredi-5707",
    "name": "Istanbul Esenyurt Yunus Emre",
    "market": "tarim_kredi",
    "lat": 41.03123,
    "lon": 28.6959
  },
  {
    "id": "a101-E035",
    "name": "Barut Esenyurt Istanbul",
    "market": "a101",
    "lat": 41.02715,
    "lon": 28.686836
  },
  {
    "id": "sok-7851",
    "name": "Esenyurt Balıkyolu",
    "market": "sok",
    "lat": 41.03219,
    "lon": 28.690731
  },
  {
    "id": "bim-T794",
    "name": "Sedef  Esenyurt",
    "market": "bim",
    "lat": 41.036026,
    "lon": 28.632807
  },
  {
    "id": "bim-7475",
    "name": "Çiğdem  Esenyurt",
    "market": "bim",
    "lat": 41.036644,
    "lon": 28.632149
  },
  {
    "id": "sok-1367",
    "name": "Esenyurt Kuruçeşme",
    "market": "sok",
    "lat": 41.036194,
    "lon": 28.633184
  },
  {
    "id": "bim-L672",
    "name": "Aktim  Esenyurt",
    "market": "bim",
    "lat": 41.037853,
    "lon": 28.630024
  },
  {
    "id": "a101-C791",
    "name": "Sedef Esenyurt Istanbul",
    "market": "a101",
    "lat": 41.03638,
    "lon": 28.633463
  },
  {
    "id": "sok-12273",
    "name": "Esenyurt Kumsal",
    "market": "sok",
    "lat": 41.032936,
    "lon": 28.640577
  },
  {
    "id": "bim-H401",
    "name": "Günvadi  Esenyurt",
    "market": "bim",
    "lat": 41.033264,
    "lon": 28.64045
  },
  {
    "id": "a101-K539",
    "name": "Hürriyet Esenyurt Istanbul",
    "market": "a101",
    "lat": 41.033012,
    "lon": 28.641075
  },
  {
    "id": "sok-12605",
    "name": "Esenyurt Ipek",
    "market": "sok",
    "lat": 41.032215,
    "lon": 28.648453
  },
  {
    "id": "a101-G411",
    "name": "Turna Esenyurt Istanbul",
    "market": "a101",
    "lat": 41.032467,
    "lon": 28.64231
  },
  {
    "id": "a101-G096",
    "name": "Atatürk Esenyurt Istanbul",
    "market": "a101",
    "lat": 41.036316,
    "lon": 28.639833
  },
  {
    "id": "bim-B834",
    "name": "Sülün  Esenyurt",
    "market": "bim",
    "lat": 41.033722,
    "lon": 28.64305
  },
  {
    "id": "a101-5262",
    "name": "Bülbül Esenyurt Istanbul",
    "market": "a101",
    "lat": 41.0335,
    "lon": 28.643843
  },
  {
    "id": "sok-9169",
    "name": "Esenyurt Bülbül",
    "market": "sok",
    "lat": 41.033195,
    "lon": 28.645145
  },
  {
    "id": "a101-0322",
    "name": "Ilkyaz Esenyurt Istanbul",
    "market": "a101",
    "lat": 41.031548,
    "lon": 28.646776
  },
  {
    "id": "bim-5060",
    "name": "Yunusemre  Esenyurt",
    "market": "bim",
    "lat": 41.032776,
    "lon": 28.648413
  },
  {
    "id": "a101-D170",
    "name": "Gazi Esenyurt Istanbul",
    "market": "a101",
    "lat": 41.03365,
    "lon": 28.648142
  },
  {
    "id": "a101-I094",
    "name": "Necmettin Erbakan Esenyurt Istanbul",
    "market": "a101",
    "lat": 41.034977,
    "lon": 28.644068
  },
  {
    "id": "bim-P911",
    "name": "Karagöz  Esenyurt",
    "market": "bim",
    "lat": 41.035027,
    "lon": 28.643833
  },
  {
    "id": "sok-5729",
    "name": "Esenyurt Kıraç Mgz",
    "market": "sok",
    "lat": 41.033928,
    "lon": 28.650394
  },
  {
    "id": "bim-8558",
    "name": "Istiklal  Esenyurt",
    "market": "bim",
    "lat": 41.035583,
    "lon": 28.64705
  },
  {
    "id": "sok-6335",
    "name": "Esenyurt Istiklal",
    "market": "sok",
    "lat": 41.034584,
    "lon": 28.65174
  },
  {
    "id": "tarim_kredi-5928",
    "name": "Istanbul Esenyurt Okul",
    "market": "tarim_kredi",
    "lat": 41.03637,
    "lon": 28.65548
  },
  {
    "id": "a101-E949",
    "name": "Ender Esenyurt Istanbul",
    "market": "a101",
    "lat": 41.030666,
    "lon": 28.652412
  },
  {
    "id": "bim-7483",
    "name": "Yaşam  Esenyurt",
    "market": "bim",
    "lat": 41.03293,
    "lon": 28.653023
  },
  {
    "id": "a101-4772",
    "name": "Istiklal Esenyurtistanbul",
    "market": "a101",
    "lat": 41.03336,
    "lon": 28.652508
  },
  {
    "id": "bim-A282",
    "name": "Köroğlu  Esenyurt",
    "market": "bim",
    "lat": 41.032146,
    "lon": 28.655123
  },
  {
    "id": "bim-L911",
    "name": "Çiftçi  Esenyurt",
    "market": "bim",
    "lat": 41.03457,
    "lon": 28.652224
  },
  {
    "id": "a101-I018",
    "name": "Fındık Esenyurt Istanbul",
    "market": "a101",
    "lat": 41.03215,
    "lon": 28.65717
  },
  {
    "id": "sok-4598",
    "name": "Şok Minizeytin",
    "market": "sok",
    "lat": 41.036213,
    "lon": 28.654243
  },
  {
    "id": "sok-3512",
    "name": "Esenyurt Meşe",
    "market": "sok",
    "lat": 41.03511,
    "lon": 28.657667
  },
  {
    "id": "a101-E773",
    "name": "Imam Hasan Esenyurt Istanbul",
    "market": "a101",
    "lat": 41.033173,
    "lon": 28.667095
  },
  {
    "id": "a101-J229",
    "name": "Hastane Esenyurt Istanbul",
    "market": "a101",
    "lat": 41.03043,
    "lon": 28.66853
  },
  {
    "id": "sok-5785",
    "name": "Esenyurt Yaşar Kemal",
    "market": "sok",
    "lat": 41.034626,
    "lon": 28.668743
  },
  {
    "id": "a101-6697",
    "name": "Nirvana Esenyurt Istanbul",
    "market": "a101",
    "lat": 41.03517,
    "lon": 28.662558
  },
  {
    "id": "bim-C181",
    "name": "Şehitler  Esenyurt",
    "market": "bim",
    "lat": 41.035244,
    "lon": 28.655031
  },
  {
    "id": "a101-D055",
    "name": "Battalgazi Esenyurt Istanbul",
    "market": "a101",
    "lat": 41.033722,
    "lon": 28.659414
  },
  {
    "id": "sok-11948",
    "name": "Esenyurt Pınar",
    "market": "sok",
    "lat": 41.033348,
    "lon": 28.663084
  },
  {
    "id": "sok-10640",
    "name": "Esenyurt Esila",
    "market": "sok",
    "lat": 41.030926,
    "lon": 28.670652
  },
  {
    "id": "a101-J424",
    "name": "Yaşar Kemal Esenyurt Istanbul",
    "market": "a101",
    "lat": 41.031364,
    "lon": 28.67397
  },
  {
    "id": "bim-D185",
    "name": "Akkule  Esenyurt",
    "market": "bim",
    "lat": 41.030663,
    "lon": 28.668608
  },
  {
    "id": "sok-2758",
    "name": "Esenyurt Ahmet Ismail",
    "market": "sok",
    "lat": 41.032192,
    "lon": 28.675726
  },
  {
    "id": "a101-H466",
    "name": "Belma Esenyurt Istanbul",
    "market": "a101",
    "lat": 41.035194,
    "lon": 28.671904
  },
  {
    "id": "sok-1041",
    "name": "Esenyurt Pazaryolu",
    "market": "sok",
    "lat": 41.02731,
    "lon": 28.670607
  },
  {
    "id": "bim-6965",
    "name": "Pınar  Esenyurt",
    "market": "bim",
    "lat": 41.034595,
    "lon": 28.668493
  },
  {
    "id": "bim-U879",
    "name": "Sude  Esenyurt",
    "market": "bim",
    "lat": 41.0335,
    "lon": 28.669714
  },
  {
    "id": "sok-14036",
    "name": "Esenyurt Esencan",
    "market": "sok",
    "lat": 41.0356,
    "lon": 28.6725
  },
  {
    "id": "bim-P109",
    "name": "Miran Evleri  Esenyurt",
    "market": "bim",
    "lat": 41.03095,
    "lon": 28.67098
  },
  {
    "id": "bim-D264",
    "name": "Hayal  Esenyurt",
    "market": "bim",
    "lat": 41.031857,
    "lon": 28.675354
  },
  {
    "id": "bim-Q960",
    "name": "Işık  Esenyurt",
    "market": "bim",
    "lat": 41.03335,
    "lon": 28.674732
  },
  {
    "id": "a101-I133",
    "name": "Acunkent Esenyurt Istanbul",
    "market": "a101",
    "lat": 41.02689,
    "lon": 28.670223
  },
  {
    "id": "tarim_kredi-5108",
    "name": "Istanbul Esenyurt Market",
    "market": "tarim_kredi",
    "lat": 41.03486,
    "lon": 28.67655
  },
  {
    "id": "tarim_kredi-5934",
    "name": "Istanbul Esenyurt Bağlarçeşme",
    "market": "tarim_kredi",
    "lat": 41.03856,
    "lon": 28.67492
  },
  {
    "id": "a101-F176",
    "name": "Nlogo Esenyurt Istanbul",
    "market": "a101",
    "lat": 41.031357,
    "lon": 28.684235
  },
  {
    "id": "sok-10259",
    "name": "Esenyurt Nlogo",
    "market": "sok",
    "lat": 41.031326,
    "lon": 28.684498
  },
  {
    "id": "a101-C935",
    "name": "Doğan Araslı Esenyurt Istanbul",
    "market": "a101",
    "lat": 41.03016,
    "lon": 28.68286
  },
  {
    "id": "bim-C477",
    "name": "Kadıoğlu  Esenyurt",
    "market": "bim",
    "lat": 41.032387,
    "lon": 28.679209
  },
  {
    "id": "bim-P599",
    "name": "Meydan  Esenyurt",
    "market": "bim",
    "lat": 41.033722,
    "lon": 28.677874
  },
  {
    "id": "a101-0545",
    "name": "Sultaniye Esenyurt Istanbul",
    "market": "a101",
    "lat": 41.033665,
    "lon": 28.684982
  },
  {
    "id": "a101-B255",
    "name": "Üçevler Esenyurt Istanbul",
    "market": "a101",
    "lat": 41.02941,
    "lon": 28.679754
  },
  {
    "id": "bim-4580",
    "name": "Bağlarçeşme  Esenyurt",
    "market": "bim",
    "lat": 41.03506,
    "lon": 28.675922
  },
  {
    "id": "a101-J988",
    "name": "N Şehir Esenyurt Istanbul",
    "market": "a101",
    "lat": 41.027477,
    "lon": 28.682795
  },
  {
    "id": "tarim_kredi-6095",
    "name": "Istanbul Esenyurt Yenikent",
    "market": "tarim_kredi",
    "lat": 41.0391,
    "lon": 28.67845
  },
  {
    "id": "sok-8708",
    "name": "Esenyurt Ozanlar",
    "market": "sok",
    "lat": 41.0335,
    "lon": 28.690973
  },
  {
    "id": "bim-H860",
    "name": "Sultaniye  Esenyurt",
    "market": "bim",
    "lat": 41.033443,
    "lon": 28.682423
  },
  {
    "id": "sok-12529",
    "name": "Esenyurt Yonca",
    "market": "sok",
    "lat": 41.0315,
    "lon": 28.69376
  },
  {
    "id": "bim-8428",
    "name": "Bahçeyolu  Esenyurt",
    "market": "bim",
    "lat": 41.028946,
    "lon": 28.681686
  },
  {
    "id": "bim-H872",
    "name": "Aşıkşenlik  Esenyurt",
    "market": "bim",
    "lat": 41.036102,
    "lon": 28.682037
  },
  {
    "id": "bim-A015",
    "name": "Balıkyolu  Avcılar",
    "market": "bim",
    "lat": 41.031693,
    "lon": 28.692732
  },
  {
    "id": "a101-4833",
    "name": "Ozanlar Esenyurt Istanbul",
    "market": "a101",
    "lat": 41.03325,
    "lon": 28.691093
  },
  {
    "id": "bim-W015",
    "name": "Menekşe  Esenyurt",
    "market": "bim",
    "lat": 41.033585,
    "lon": 28.690971
  },
  {
    "id": "bim-H866",
    "name": "Ceylan  Esenyurt",
    "market": "bim",
    "lat": 41.02976,
    "lon": 28.693062
  },
  {
    "id": "a101-G760",
    "name": "Ceylan Esenyurt Istanbul",
    "market": "a101",
    "lat": 41.02962,
    "lon": 28.693022
  },
  {
    "id": "a101-0493",
    "name": "Yatmaz Esenyurt Istanbul",
    "market": "a101",
    "lat": 41.03147,
    "lon": 28.694714
  },
  {
    "id": "a101-C161",
    "name": "Okul Esenyurt Istanbul",
    "market": "a101",
    "lat": 41.0284,
    "lon": 28.693802
  },
  {
    "id": "bim-J446",
    "name": "Yeşilkent  Avcılar",
    "market": "bim",
    "lat": 41.031666,
    "lon": 28.69563
  },
  {
    "id": "bim-A024",
    "name": "Ozanlar  Avcılar",
    "market": "bim",
    "lat": 41.035736,
    "lon": 28.690777
  },
  {
    "id": "bim-H856",
    "name": "Özer  Esenyurt",
    "market": "bim",
    "lat": 41.02935,
    "lon": 28.696697
  },
  {
    "id": "bim-H292",
    "name": "Dostavcılar",
    "market": "bim",
    "lat": 41.033634,
    "lon": 28.69887
  },
  {
    "id": "a101-9307",
    "name": "Kanberoğlu Esenyurt Istanbul",
    "market": "a101",
    "lat": 41.036476,
    "lon": 28.690763
  },
  {
    "id": "sok-132",
    "name": "Istanbul Esenyurt Aktaş",
    "market": "sok",
    "lat": 41.039356,
    "lon": 28.6915
  },
  {
    "id": "sok-9449",
    "name": "Esenyurt Yeşildağ",
    "market": "sok",
    "lat": 41.039494,
    "lon": 28.646292
  },
  {
    "id": "a101-F509",
    "name": "Yakut Esenyurt Istanbul",
    "market": "a101",
    "lat": 41.03552,
    "lon": 28.647703
  },
  {
    "id": "a101-4819",
    "name": "Kıraç Esenyurt Istanbul",
    "market": "a101",
    "lat": 41.041348,
    "lon": 28.645794
  },
  {
    "id": "sok-8963",
    "name": "Esenyurt Esen",
    "market": "sok",
    "lat": 41.04165,
    "lon": 28.644888
  },
  {
    "id": "bim-C691",
    "name": "Şenerbey  Esenyurt",
    "market": "bim",
    "lat": 41.039715,
    "lon": 28.646019
  },
  {
    "id": "sok-4580",
    "name": "Şok Minimimoza",
    "market": "sok",
    "lat": 41.043957,
    "lon": 28.647182
  },
  {
    "id": "bim-J610",
    "name": "Mercan  Esenyurt",
    "market": "bim",
    "lat": 41.03528,
    "lon": 28.64858
  },
  {
    "id": "a101-K289",
    "name": "Yeşildağ Esenyurt Istanbul",
    "market": "a101",
    "lat": 41.041214,
    "lon": 28.647547
  },
  {
    "id": "bim-A411",
    "name": "Malkoçoğlu  Esenyurt",
    "market": "bim",
    "lat": 41.0395,
    "lon": 28.650295
  },
  {
    "id": "sok-8854",
    "name": "Esenyurt Ayazma",
    "market": "sok",
    "lat": 41.041916,
    "lon": 28.650219
  },
  {
    "id": "tarim_kredi-7268",
    "name": "Istanbul Esenyurt Osmangazi",
    "market": "tarim_kredi",
    "lat": 41.04181,
    "lon": 28.65287
  },
  {
    "id": "sok-1313",
    "name": "Istanbul Esenyurt Mirza",
    "market": "sok",
    "lat": 41.03891,
    "lon": 28.662815
  },
  {
    "id": "a101-9778",
    "name": "Cumhuriyet Esenyurt Istanbul",
    "market": "a101",
    "lat": 41.036728,
    "lon": 28.65579
  },
  {
    "id": "bim-G757",
    "name": "Çakıroğlu  Esenyurt",
    "market": "bim",
    "lat": 41.040787,
    "lon": 28.65961
  },
  {
    "id": "a101-B907",
    "name": "Mehtap Esenyurt Istanbul",
    "market": "a101",
    "lat": 41.03996,
    "lon": 28.654684
  },
  {
    "id": "a101-B375",
    "name": "Çınar Esenyurt Istanbul",
    "market": "a101",
    "lat": 41.03845,
    "lon": 28.663696
  },
  {
    "id": "a101-5264",
    "name": "Sivas Kongre Esenyurt Istanbul",
    "market": "a101",
    "lat": 41.038322,
    "lon": 28.66384
  },
  {
    "id": "bim-H162",
    "name": "Battalgazi  Esenyurt",
    "market": "bim",
    "lat": 41.03999,
    "lon": 28.654076
  },
  {
    "id": "bim-4617",
    "name": "Merkez Mah  Esenyurt",
    "market": "bim",
    "lat": 41.03883,
    "lon": 28.65331
  },
  {
    "id": "sok-1598",
    "name": "Istanbul Esenyurt Kongre",
    "market": "sok",
    "lat": 41.04237,
    "lon": 28.660742
  },
  {
    "id": "bim-B811",
    "name": "Bozyurt  Esenyurt",
    "market": "bim",
    "lat": 41.04282,
    "lon": 28.661976
  },
  {
    "id": "sok-4316",
    "name": "Şok Miniornek",
    "market": "sok",
    "lat": 41.04128,
    "lon": 28.664341
  },
  {
    "id": "sok-6250",
    "name": "Esenyurt Bağlarçeşme",
    "market": "sok",
    "lat": 41.0365,
    "lon": 28.66941
  },
  {
    "id": "bim-D186",
    "name": "Yaka  Esenyurt",
    "market": "bim",
    "lat": 41.038162,
    "lon": 28.664692
  },
  {
    "id": "bim-T518",
    "name": "Ahmet Arif  Esenyurt",
    "market": "bim",
    "lat": 41.03714,
    "lon": 28.665195
  },
  {
    "id": "bim-P598",
    "name": "Adora  Esenyurt",
    "market": "bim",
    "lat": 41.03697,
    "lon": 28.669668
  },
  {
    "id": "bim-V324",
    "name": "Eylül  Esenyurt",
    "market": "bim",
    "lat": 41.035904,
    "lon": 28.669765
  },
  {
    "id": "tarim_kredi-7328",
    "name": "Istanbul Esenyurt Örnek",
    "market": "tarim_kredi",
    "lat": 41.04134,
    "lon": 28.67552
  },
  {
    "id": "a101-D735",
    "name": "Muhammediye Esenyurt Istanbul",
    "market": "a101",
    "lat": 41.036407,
    "lon": 28.682129
  },
  {
    "id": "sok-5117",
    "name": "Esenyurt Yenikent",
    "market": "sok",
    "lat": 41.03681,
    "lon": 28.680468
  },
  {
    "id": "a101-6980",
    "name": "Meydan Esenyurt Istanbul",
    "market": "a101",
    "lat": 41.038136,
    "lon": 28.679989
  },
  {
    "id": "bim-H847",
    "name": "Yenikent  Esenyurt",
    "market": "bim",
    "lat": 41.037605,
    "lon": 28.678732
  },
  {
    "id": "bim-U576",
    "name": "Zümrüt  Esenyurt",
    "market": "bim",
    "lat": 41.03913,
    "lon": 28.6785
  },
  {
    "id": "sok-5628",
    "name": "Esenyurt Merkez Mgz",
    "market": "sok",
    "lat": 41.03727,
    "lon": 28.677967
  },
  {
    "id": "a101-H165",
    "name": "Köyiçi Esenyurt Istanbul",
    "market": "a101",
    "lat": 41.037655,
    "lon": 28.677504
  },
  {
    "id": "bim-V971",
    "name": "Irşadi  Esenyurt",
    "market": "bim",
    "lat": 41.042084,
    "lon": 28.673681
  },
  {
    "id": "a101-I306",
    "name": "Çelik Esenyurt Istanbul",
    "market": "a101",
    "lat": 41.035698,
    "lon": 28.676924
  },
  {
    "id": "sok-639",
    "name": "Esenyurt Nmerkez",
    "market": "sok",
    "lat": 41.0414,
    "lon": 28.677832
  },
  {
    "id": "sok-6436",
    "name": "Ardıç Evler",
    "market": "sok",
    "lat": 41.043007,
    "lon": 28.679976
  },
  {
    "id": "a101-4715",
    "name": "Esenyurt Istanbul",
    "market": "a101",
    "lat": 41.033066,
    "lon": 28.67893
  },
  {
    "id": "sok-1564",
    "name": "Istanbul Esenyurt Toprak",
    "market": "sok",
    "lat": 41.036976,
    "lon": 28.67521
  },
  {
    "id": "tarim_kredi-7226",
    "name": "Istanbul Esenyurt Erzurum Kongre",
    "market": "tarim_kredi",
    "lat": 41.04644,
    "lon": 28.66833
  },
  {
    "id": "a101-4747",
    "name": "Yenikent Esenyurt Istanbul",
    "market": "a101",
    "lat": 41.037697,
    "lon": 28.683603
  },
  {
    "id": "bim-H862",
    "name": "Yonca Park  Esenyurt",
    "market": "bim",
    "lat": 41.036755,
    "lon": 28.684101
  },
  {
    "id": "a101-J591",
    "name": "Ertuğrul Gazi Esenyurt Istanbul",
    "market": "a101",
    "lat": 41.03624,
    "lon": 28.68381
  },
  {
    "id": "a101-E945",
    "name": "Hamza Esenyurt Istanbul",
    "market": "a101",
    "lat": 41.037968,
    "lon": 28.687666
  },
  {
    "id": "bim-H851",
    "name": "Bilali Habeşi  Esenyurt",
    "market": "bim",
    "lat": 41.039867,
    "lon": 28.68808
  },
  {
    "id": "sok-8243",
    "name": "Esenyurt Hasanbey",
    "market": "sok",
    "lat": 41.04053,
    "lon": 28.687368
  },
  {
    "id": "sok-11863",
    "name": "Esenyurt Özkan",
    "market": "sok",
    "lat": 41.041813,
    "lon": 28.689053
  },
  {
    "id": "a101-C372",
    "name": "Osmanlı Esenyurt Istanbul",
    "market": "a101",
    "lat": 41.03902,
    "lon": 28.694609
  },
  {
    "id": "bim-B838",
    "name": "Atilla Ilhan  Avcılar",
    "market": "bim",
    "lat": 41.037006,
    "lon": 28.699242
  },
  {
    "id": "a101-J861",
    "name": "Alaz Avcılar Istanbul",
    "market": "a101",
    "lat": 41.036743,
    "lon": 28.699232
  },
  {
    "id": "sok-13656",
    "name": "Avcılar Zümra Sok",
    "market": "sok",
    "lat": 41.0362,
    "lon": 28.6987
  },
  {
    "id": "a101-D447",
    "name": "Gazi Avcılar Istanbul",
    "market": "a101",
    "lat": 41.03971,
    "lon": 28.699652
  },
  {
    "id": "a101-E291",
    "name": "Atilla Avcılar Istanbul",
    "market": "a101",
    "lat": 41.035458,
    "lon": 28.700365
  },
  {
    "id": "bim-V416",
    "name": "Uğur Mumcu Mini  Avcılar",
    "market": "bim",
    "lat": 41.041523,
    "lon": 28.696924
  },
  {
    "id": "bim-J853",
    "name": "Birlikavcılar",
    "market": "bim",
    "lat": 41.038414,
    "lon": 28.701721
  },
  {
    "id": "bim-H850",
    "name": "Yurdum  Esenyurt",
    "market": "bim",
    "lat": 41.039364,
    "lon": 28.691898
  },
  {
    "id": "bim-H857",
    "name": "Amasyalılar  Esenyurt",
    "market": "bim",
    "lat": 41.041573,
    "lon": 28.69446
  },
  {
    "id": "sok-9574",
    "name": "Esenyurt Hz Osman Cami",
    "market": "sok",
    "lat": 41.04451,
    "lon": 28.68324
  },
  {
    "id": "sok-11224",
    "name": "Esenyurt Servet",
    "market": "sok",
    "lat": 41.041794,
    "lon": 28.690865
  },
  {
    "id": "bim-K295",
    "name": "Ulumanlar  Esenyurt",
    "market": "bim",
    "lat": 41.045197,
    "lon": 28.64363
  },
  {
    "id": "a101-0314",
    "name": "Açelya Esenyurt Istanbul",
    "market": "a101",
    "lat": 41.04455,
    "lon": 28.645018
  },
  {
    "id": "bim-4613",
    "name": "Kıraç  Esenyurt",
    "market": "bim",
    "lat": 41.043217,
    "lon": 28.64685
  },
  {
    "id": "sok-4208",
    "name": "Şok Minisarıpapatya",
    "market": "sok",
    "lat": 41.0457,
    "lon": 28.645893
  },
  {
    "id": "a101-4773",
    "name": "Papatya Esenyurtistiklal",
    "market": "a101",
    "lat": 41.043457,
    "lon": 28.647276
  },
  {
    "id": "bim-K575",
    "name": "Ayazma  Esenyurt",
    "market": "bim",
    "lat": 41.04432,
    "lon": 28.650688
  },
  {
    "id": "sok-4463",
    "name": "Şok Miniayasofya",
    "market": "sok",
    "lat": 41.04441,
    "lon": 28.652794
  },
  {
    "id": "sok-8970",
    "name": "Esenyurt Battal Gazi",
    "market": "sok",
    "lat": 41.04092,
    "lon": 28.654411
  },
  {
    "id": "bim-C361",
    "name": "Ayasofya  Esenyurt",
    "market": "bim",
    "lat": 41.042904,
    "lon": 28.651752
  },
  {
    "id": "a101-I721",
    "name": "Ahmet Haşim Esenyurt Istanbul",
    "market": "a101",
    "lat": 41.042477,
    "lon": 28.652521
  },
  {
    "id": "a101-B585",
    "name": "Menekşe Esenyurt Istanbul",
    "market": "a101",
    "lat": 41.042973,
    "lon": 28.650621
  },
  {
    "id": "a101-C831",
    "name": "Eyyübi Esenyurt Istanbul",
    "market": "a101",
    "lat": 41.04468,
    "lon": 28.659554
  },
  {
    "id": "sok-11542",
    "name": "Esenyurt Erzurum",
    "market": "sok",
    "lat": 41.043503,
    "lon": 28.66308
  },
  {
    "id": "a101-G939",
    "name": "Topçu Esenyurt Istanbul",
    "market": "a101",
    "lat": 41.0479,
    "lon": 28.661818
  },
  {
    "id": "a101-4756",
    "name": "Örnek Esenyurt Istanbul",
    "market": "a101",
    "lat": 41.0444,
    "lon": 28.6643
  },
  {
    "id": "bim-6901",
    "name": "Kuzuyolu  Esenyurt",
    "market": "bim",
    "lat": 41.044235,
    "lon": 28.663872
  },
  {
    "id": "a101-F966",
    "name": "Korkmazlar Esenyurt Istanbul",
    "market": "a101",
    "lat": 41.042717,
    "lon": 28.67539
  },
  {
    "id": "a101-E710",
    "name": "Meydan Ardıçlı Çarşı Esenyurt Istan",
    "market": "a101",
    "lat": 41.045773,
    "lon": 28.675375
  },
  {
    "id": "bim-7935",
    "name": "Agena  Esenyurt",
    "market": "bim",
    "lat": 41.045837,
    "lon": 28.674276
  },
  {
    "id": "a101-9083",
    "name": "Irşadi Esenyurt Ista",
    "market": "a101",
    "lat": 41.042786,
    "lon": 28.673946
  },
  {
    "id": "sok-11864",
    "name": "Esenyurt Bulut",
    "market": "sok",
    "lat": 41.042145,
    "lon": 28.674463
  },
  {
    "id": "sok-994",
    "name": "Esenyurt Okul Yolu",
    "market": "sok",
    "lat": 41.041267,
    "lon": 28.672787
  },
  {
    "id": "sok-3143",
    "name": "Esenyurt Fikri Sönmez",
    "market": "sok",
    "lat": 41.04474,
    "lon": 28.670084
  },
  {
    "id": "bim-B197",
    "name": "Kongre Cad  Esenyurt",
    "market": "bim",
    "lat": 41.045834,
    "lon": 28.667847
  },
  {
    "id": "bim-4534",
    "name": "Örnek  Esenyurt",
    "market": "bim",
    "lat": 41.043507,
    "lon": 28.669104
  },
  {
    "id": "bim-L671",
    "name": "Ahteran  Esenyurt",
    "market": "bim",
    "lat": 41.047108,
    "lon": 28.675314
  },
  {
    "id": "a101-J382",
    "name": "Saray Esenyurt Istanbul",
    "market": "a101",
    "lat": 41.040752,
    "lon": 28.674807
  },
  {
    "id": "a101-E757",
    "name": "Ahmet Arif Esenyurt Istanbul",
    "market": "a101",
    "lat": 41.04065,
    "lon": 28.674046
  },
  {
    "id": "sok-12184",
    "name": "Esenyurt Vefa",
    "market": "sok",
    "lat": 41.047253,
    "lon": 28.670048
  },
  {
    "id": "sok-3109",
    "name": "Esenyurt Umut",
    "market": "sok",
    "lat": 41.04524,
    "lon": 28.666504
  },
  {
    "id": "bim-H845",
    "name": "Depo Durağı  Esenyurt",
    "market": "bim",
    "lat": 41.044674,
    "lon": 28.678934
  },
  {
    "id": "a101-D542",
    "name": "Bulut Esenyurt Istanbul",
    "market": "a101",
    "lat": 41.043907,
    "lon": 28.679111
  },
  {
    "id": "sok-1401",
    "name": "Esenyurt Ispartakule",
    "market": "sok",
    "lat": 41.044746,
    "lon": 28.679008
  },
  {
    "id": "a101-J522",
    "name": "Hacı Bektaş Esenyurt Istanbul",
    "market": "a101",
    "lat": 41.042423,
    "lon": 28.678017
  },
  {
    "id": "bim-H854",
    "name": "Atatürk esenyurt",
    "market": "bim",
    "lat": 41.042427,
    "lon": 28.678267
  },
  {
    "id": "bim-H849",
    "name": "Ardıçlı  Esenyurt",
    "market": "bim",
    "lat": 41.04345,
    "lon": 28.685284
  },
  {
    "id": "a101-F591",
    "name": "Gökçe Avcılar Istanbul",
    "market": "a101",
    "lat": 41.04301,
    "lon": 28.69567
  },
  {
    "id": "bim-H864",
    "name": "Süleymaniye  Esenyurt",
    "market": "bim",
    "lat": 41.04273,
    "lon": 28.682417
  },
  {
    "id": "bim-K043",
    "name": "Hercai  Esenyurt",
    "market": "bim",
    "lat": 41.04612,
    "lon": 28.684387
  },
  {
    "id": "sok-8825",
    "name": "Esenyurt Amasyalılar Cad",
    "market": "sok",
    "lat": 41.041325,
    "lon": 28.693415
  },
  {
    "id": "a101-4798",
    "name": "Amasyalılar Esenyurt Istanbul",
    "market": "a101",
    "lat": 41.040993,
    "lon": 28.691902
  },
  {
    "id": "sok-14243",
    "name": "Ispartakule Sultaniye",
    "market": "sok",
    "lat": 41.0454,
    "lon": 28.6876
  },
  {
    "id": "a101-E124",
    "name": "Habeşi Esenyurt Istanbul",
    "market": "a101",
    "lat": 41.040813,
    "lon": 28.687695
  },
  {
    "id": "a101-F015",
    "name": "Süleymaniye Esenyurt Istanbul",
    "market": "a101",
    "lat": 41.04443,
    "lon": 28.685812
  },
  {
    "id": "a101-6687",
    "name": "Aşık Şenlik Esenyurt Istanbul",
    "market": "a101",
    "lat": 41.039577,
    "lon": 28.687494
  },
  {
    "id": "bim-T303",
    "name": "Gazi  Avcılar",
    "market": "bim",
    "lat": 41.041264,
    "lon": 28.69978
  },
  {
    "id": "sok-4574",
    "name": "Yozgat",
    "market": "sok",
    "lat": 41.03947,
    "lon": 28.700096
  },
  {
    "id": "a101-E963",
    "name": "Inci Avcılar Istanbul",
    "market": "a101",
    "lat": 41.04047,
    "lon": 28.701977
  },
  {
    "id": "bim-D786",
    "name": "Gölşehir  Büyükçekmece",
    "market": "bim",
    "lat": 41.054657,
    "lon": 28.625465
  },
  {
    "id": "a101-0785",
    "name": "Çakmaklı Büyükçekmece Istanbul",
    "market": "a101",
    "lat": 41.055313,
    "lon": 28.625395
  },
  {
    "id": "a101-G771",
    "name": "Yazıcıoğlu Esenyurt Istanbul",
    "market": "a101",
    "lat": 41.04751,
    "lon": 28.664204
  },
  {
    "id": "a101-C806",
    "name": "Erzurum Kongre Esenyurt Istanbul",
    "market": "a101",
    "lat": 41.045418,
    "lon": 28.666971
  },
  {
    "id": "migros-3553",
    "name": "5m Akbatı",
    "market": "migros",
    "lat": 41.056335,
    "lon": 28.667503
  },
  {
    "id": "bim-L552",
    "name": "Melodi  Esenyurt",
    "market": "bim",
    "lat": 41.04763,
    "lon": 28.670374
  },
  {
    "id": "tarim_kredi-5228",
    "name": "Istanbul Esenkent Market",
    "market": "tarim_kredi",
    "lat": 41.05658,
    "lon": 28.67299
  },
  {
    "id": "a101-9191",
    "name": "Enverpaşa Esenyurt Istanbul",
    "market": "a101",
    "lat": 41.055622,
    "lon": 28.673903
  },
  {
    "id": "bim-K874",
    "name": "Esenkent  Esenyurt",
    "market": "bim",
    "lat": 41.056652,
    "lon": 28.672619
  },
  {
    "id": "a101-C900",
    "name": "Kuzu Yolu Esenyurt Istanbul",
    "market": "a101",
    "lat": 41.043392,
    "lon": 28.670475
  },
  {
    "id": "migros-5992",
    "name": "Elitkent Esenyurt Mm Migros",
    "market": "migros",
    "lat": 41.05751,
    "lon": 28.676783
  },
  {
    "id": "a101-8030",
    "name": "Ispartakule Esenyurt Istanbul",
    "market": "a101",
    "lat": 41.045902,
    "lon": 28.681063
  },
  {
    "id": "sok-1757",
    "name": "Avcılar Göl Panaroma",
    "market": "sok",
    "lat": 41.054756,
    "lon": 28.685598
  },
  {
    "id": "tarim_kredi-7252",
    "name": "Istanbul Esenyurt Aşık Veysel",
    "market": "tarim_kredi",
    "lat": 41.05849,
    "lon": 28.67746
  },
  {
    "id": "sok-2195",
    "name": "Istanbul Esenyurt Sude",
    "market": "sok",
    "lat": 41.062943,
    "lon": 28.65409
  },
  {
    "id": "a101-D978",
    "name": "Rüya Esenyurt Istanbul",
    "market": "a101",
    "lat": 41.06443,
    "lon": 28.65837
  },
  {
    "id": "a101-E656",
    "name": "Koza Esenyurt Istanbul",
    "market": "a101",
    "lat": 41.06052,
    "lon": 28.667683
  },
  {
    "id": "bim-K882",
    "name": "Kozapark  Esenyurt",
    "market": "bim",
    "lat": 41.060482,
    "lon": 28.66774
  },
  {
    "id": "bim-K881",
    "name": "Veysel Karani  Esenyurt",
    "market": "bim",
    "lat": 41.060905,
    "lon": 28.66759
  },
  {
    "id": "carrefour-2020",
    "name": "Istanbul Crown Deluxe Gurme",
    "market": "carrefour",
    "lat": 41.061207,
    "lon": 28.66857
  },
  {
    "id": "sok-1347",
    "name": "Esenyurt Orhan Gazi",
    "market": "sok",
    "lat": 41.0646,
    "lon": 28.658558
  },
  {
    "id": "sok-6273",
    "name": "Esenkent Talatpaşa",
    "market": "sok",
    "lat": 41.059193,
    "lon": 28.672375
  },
  {
    "id": "a101-B046",
    "name": "Çoruh Esenyurt Istanbul",
    "market": "a101",
    "lat": 41.05965,
    "lon": 28.674725
  },
  {
    "id": "sok-252",
    "name": "Esenyurt Esenkent Sunflow",
    "market": "sok",
    "lat": 41.05973,
    "lon": 28.674871
  },
  {
    "id": "bim-K880",
    "name": "Hasanoğlu  Esenyurt",
    "market": "bim",
    "lat": 41.057358,
    "lon": 28.672068
  },
  {
    "id": "migros-965",
    "name": "Esenyurt Satış Mağazası",
    "market": "migros",
    "lat": 41.060165,
    "lon": 28.676146
  },
  {
    "id": "sok-6111",
    "name": "Esenkent Pazariçi",
    "market": "sok",
    "lat": 41.061172,
    "lon": 28.676334
  },
  {
    "id": "a101-K347",
    "name": "Yeni Esenkent Esenyurt Istanbul",
    "market": "a101",
    "lat": 41.06507,
    "lon": 28.669954
  },
  {
    "id": "bim-K875",
    "name": "Aşık Veysel  Esenyurt",
    "market": "bim",
    "lat": 41.065147,
    "lon": 28.670452
  },
  {
    "id": "sok-2832",
    "name": "Esenyurt Esenkent Karanf",
    "market": "sok",
    "lat": 41.065098,
    "lon": 28.669798
  },
  {
    "id": "a101-I727",
    "name": "Yüzüncü Yıl Başakşehir Istanbul",
    "market": "a101",
    "lat": 41.065323,
    "lon": 28.673365
  },
  {
    "id": "bim-K571",
    "name": "Evliya Çelebi  Başakşehir",
    "market": "bim",
    "lat": 41.062817,
    "lon": 28.682522
  },
  {
    "id": "migros-312",
    "name": "Bahçeşehir Mağazası",
    "market": "migros",
    "lat": 41.06055,
    "lon": 28.68736
  },
  {
    "id": "a101-B339",
    "name": "Bahçeşehir Başakşehir Istanbul",
    "market": "a101",
    "lat": 41.06364,
    "lon": 28.68809
  },
  {
    "id": "carrefour-5471",
    "name": "Istanbul Pelıcanhıll",
    "market": "carrefour",
    "lat": 41.069057,
    "lon": 28.620258
  },
  {
    "id": "a101-F455",
    "name": "Demir Lavida Büyükçekmece Istanbul",
    "market": "a101",
    "lat": 41.071583,
    "lon": 28.621933
  },
  {
    "id": "migros-9803",
    "name": "Mjet Bulvar 9 Esenyurt Ist",
    "market": "migros",
    "lat": 41.06709,
    "lon": 28.637972
  },
  {
    "id": "a101-4761",
    "name": "Mimsan Esenyurt Istanbul",
    "market": "a101",
    "lat": 41.06599,
    "lon": 28.655718
  },
  {
    "id": "a101-J318",
    "name": "Yeni Evren Esenyurt Istanbul",
    "market": "a101",
    "lat": 41.067127,
    "lon": 28.659338
  },
  {
    "id": "bim-K876",
    "name": "Orhangazi  Esenyurt",
    "market": "bim",
    "lat": 41.067886,
    "lon": 28.659397
  },
  {
    "id": "bim-K884",
    "name": "Baymars  Esenyurt",
    "market": "bim",
    "lat": 41.067654,
    "lon": 28.660479
  },
  {
    "id": "a101-H007",
    "name": "Yalçıntepe Esenyurt Istanbul",
    "market": "a101",
    "lat": 41.06713,
    "lon": 28.662868
  },
  {
    "id": "migros-7399",
    "name": "Bahçeşehir Modern Istanbul Mm",
    "market": "migros",
    "lat": 41.069595,
    "lon": 28.664894
  },
  {
    "id": "carrefour-5486",
    "name": "Istanbul Bahçeşehır Dumankaya",
    "market": "carrefour",
    "lat": 41.069855,
    "lon": 28.664705
  },
  {
    "id": "bim-V453",
    "name": "Afacan  Başakşehir",
    "market": "bim",
    "lat": 41.068577,
    "lon": 28.674536
  },
  {
    "id": "bim-H993",
    "name": "Mavi Çarşı  Bşehir",
    "market": "bim",
    "lat": 41.06878,
    "lon": 28.687826
  },
  {
    "id": "a101-F473",
    "name": "Gölet Başakşehir Istanbul",
    "market": "a101",
    "lat": 41.07068,
    "lon": 28.687712
  },
  {
    "id": "tarim_kredi-5162",
    "name": "Istanbul Şelale Caddesi",
    "market": "tarim_kredi",
    "lat": 41.07193,
    "lon": 28.68488
  },
  {
    "id": "migros-4855",
    "name": "Bahçecity Mmm Migros",
    "market": "migros",
    "lat": 41.066692,
    "lon": 28.700975
  },
  {
    "id": "sok-8974",
    "name": "Ispartakule Metro",
    "market": "sok",
    "lat": 41.06236,
    "lon": 28.708008
  },
  {
    "id": "migros-5205",
    "name": "Demir Lavida Hadımköy Ist Mm",
    "market": "migros",
    "lat": 41.07507,
    "lon": 28.623081
  },
  {
    "id": "a101-C500",
    "name": "Akça Esenyurt Istanbul",
    "market": "a101",
    "lat": 41.07291,
    "lon": 28.633648
  },
  {
    "id": "bim-K883",
    "name": "Yiğittürkesenyurt",
    "market": "bim",
    "lat": 41.07304,
    "lon": 28.633562
  },
  {
    "id": "tarim_kredi-5845",
    "name": "Istanbul Akçaburgaz",
    "market": "tarim_kredi",
    "lat": 41.07291,
    "lon": 28.63386
  },
  {
    "id": "sok-13847",
    "name": "Esenyurt Akçaburgaz Yiğit",
    "market": "sok",
    "lat": 41.07363,
    "lon": 28.633783
  },
  {
    "id": "bim-K878",
    "name": "Melıksah  Esenyurt",
    "market": "bim",
    "lat": 41.07547,
    "lon": 28.631832
  },
  {
    "id": "sok-1059",
    "name": "Akçaburgaz Kayra",
    "market": "sok",
    "lat": 41.074703,
    "lon": 28.634762
  },
  {
    "id": "bim-R837",
    "name": "Kılıçarslan  Esenyurt",
    "market": "bim",
    "lat": 41.0742,
    "lon": 28.635303
  },
  {
    "id": "tarim_kredi-7533",
    "name": "Istanbul Esenyurt Hfahri Orman",
    "market": "tarim_kredi",
    "lat": 41.07563,
    "lon": 28.63384
  },
  {
    "id": "a101-C896",
    "name": "Kültür Esenyurt Istanbul",
    "market": "a101",
    "lat": 41.076427,
    "lon": 28.632875
  },
  {
    "id": "sok-13639",
    "name": "Esenyurt Aburgaz Osmanlı",
    "market": "sok",
    "lat": 41.076904,
    "lon": 28.632286
  },
  {
    "id": "a101-G637",
    "name": "Alkop Esenyurt Istanbul",
    "market": "a101",
    "lat": 41.073524,
    "lon": 28.637844
  },
  {
    "id": "bim-K877",
    "name": "Akçaburgaz  Esenyurt",
    "market": "bim",
    "lat": 41.077934,
    "lon": 28.631083
  },
  {
    "id": "sok-130",
    "name": "Esenyurt Akçaburgaz Yemr",
    "market": "sok",
    "lat": 41.078106,
    "lon": 28.631994
  },
  {
    "id": "bim-V405",
    "name": "Artun  Arnavutköy",
    "market": "bim",
    "lat": 41.077805,
    "lon": 28.647303
  },
  {
    "id": "bim-U528",
    "name": "Conkbayırı  Arnavutköy",
    "market": "bim",
    "lat": 41.077805,
    "lon": 28.647303
  },
  {
    "id": "a101-H171",
    "name": "Strada Esenyurt Istanbul",
    "market": "a101",
    "lat": 41.07431,
    "lon": 28.657948
  },
  {
    "id": "a101-4746",
    "name": "Boğazköy Başakşehir Istanbul",
    "market": "a101",
    "lat": 41.073498,
    "lon": 28.666704
  },
  {
    "id": "a101-D838",
    "name": "Hillpark Plus Başakşehir Istanbul",
    "market": "a101",
    "lat": 41.072407,
    "lon": 28.68553
  },
  {
    "id": "migros-2529",
    "name": "Bahçeşehirpark Mmm Mıgros",
    "market": "migros",
    "lat": 41.07268,
    "lon": 28.685051
  },
  {
    "id": "sok-13076",
    "name": "Başakşehir Barış Sokak",
    "market": "sok",
    "lat": 41.072903,
    "lon": 28.685652
  },
  {
    "id": "bim-H994",
    "name": "Bahçeşehir  Başakşehir",
    "market": "bim",
    "lat": 41.072594,
    "lon": 28.685982
  },
  {
    "id": "carrefour-5239",
    "name": "Istanbul Bahçeşehır Spradon Va",
    "market": "carrefour",
    "lat": 41.07788,
    "lon": 28.676699
  },
  {
    "id": "bim-H996",
    "name": "Vaditepe  Başakşehir",
    "market": "bim",
    "lat": 41.07401,
    "lon": 28.692244
  },
  {
    "id": "tarim_kredi-7236",
    "name": "Istanbul Başakşehir Recep Yazıcıoğlu",
    "market": "tarim_kredi",
    "lat": 41.0731,
    "lon": 28.69342
  },
  {
    "id": "a101-G488",
    "name": "Vaditepe Başakşehir Istanbul",
    "market": "a101",
    "lat": 41.07679,
    "lon": 28.694391
  },
  {
    "id": "sok-10645",
    "name": "Bahçeşehir Vaditepe",
    "market": "sok",
    "lat": 41.076305,
    "lon": 28.696323
  },
  {
    "id": "a101-6975",
    "name": "Akçaburgaz Esenyurt Istanbul ",
    "market": "a101",
    "lat": 41.078278,
    "lon": 28.63055
  },
  {
    "id": "sok-11806",
    "name": "Akçaburgaz Orman",
    "market": "sok",
    "lat": 41.07953,
    "lon": 28.629835
  },
  {
    "id": "bim-R600",
    "name": "Orman Caddesi  Esenyurt",
    "market": "bim",
    "lat": 41.080025,
    "lon": 28.629816
  },
  {
    "id": "sok-9145",
    "name": "Esenyurt Akçaburgaz",
    "market": "sok",
    "lat": 41.081047,
    "lon": 28.62955
  },
  {
    "id": "bim-K879",
    "name": "Alkopesenyurt",
    "market": "bim",
    "lat": 41.080173,
    "lon": 28.63284
  },
  {
    "id": "a101-D746",
    "name": "Hoşdere Başakşehir Istanbul",
    "market": "a101",
    "lat": 41.08405,
    "lon": 28.655502
  },
  {
    "id": "bim-O099",
    "name": "Avrupark  Başakşehir",
    "market": "bim",
    "lat": 41.084347,
    "lon": 28.655378
  },
  {
    "id": "sok-10352",
    "name": "Bahçekent Medeniyet",
    "market": "sok",
    "lat": 41.08398,
    "lon": 28.655706
  },
  {
    "id": "migros-2334",
    "name": "Boğazköy Verde Molino Avm M",
    "market": "migros",
    "lat": 41.08457,
    "lon": 28.667591
  },
  {
    "id": "sok-10182",
    "name": "Bahçeşehir Fırat",
    "market": "sok",
    "lat": 41.081562,
    "lon": 28.693344
  },
  {
    "id": "bim-R759",
    "name": "Emlak Konut  Avcılar",
    "market": "bim",
    "lat": 41.076836,
    "lon": 28.708508
  },
  {
    "id": "migros-8741",
    "name": "Mjet Karaağaç Alkent Istanbul",
    "market": "migros",
    "lat": 41.087093,
    "lon": 28.628511
  },
  {
    "id": "migros-6344",
    "name": "Mjet Iü Cerrahpaşa Bçekmece",
    "market": "migros",
    "lat": 41.090736,
    "lon": 28.620317
  },
  {
    "id": "tarim_kredi-5399",
    "name": "Istanbul Başakşehir Bahçekent",
    "market": "tarim_kredi",
    "lat": 41.08476,
    "lon": 28.65541
  },
  {
    "id": "sok-210",
    "name": "Istanbul Bahçekent Avrup",
    "market": "sok",
    "lat": 41.087425,
    "lon": 28.655106
  },
  {
    "id": "sok-9768",
    "name": "Başakşehir Bahçekent",
    "market": "sok",
    "lat": 41.086132,
    "lon": 28.652376
  },
  {
    "id": "sok-1770",
    "name": "Istan Bahçekent Mercedes",
    "market": "sok",
    "lat": 41.089127,
    "lon": 28.649048
  },
  {
    "id": "a101-G828",
    "name": "Tunç Esenyurt Istanbul",
    "market": "a101",
    "lat": 41.090984,
    "lon": 28.643913
  },
  {
    "id": "migros-8984",
    "name": "Tual Bahçekent Istanbul M",
    "market": "migros",
    "lat": 41.0902,
    "lon": 28.6543
  },
  {
    "id": "a101-K106",
    "name": "Tevfik Fikret Başakşehir Istanbul",
    "market": "a101",
    "lat": 41.084873,
    "lon": 28.667707
  },
  {
    "id": "tarim_kredi-7615",
    "name": "Istanbul Başakşehir Bahçeşehir",
    "market": "tarim_kredi",
    "lat": 41.08977,
    "lon": 28.67513
  },
  {
    "id": "sok-11747",
    "name": "Esenyurt Emlak",
    "market": "sok",
    "lat": 41.090744,
    "lon": 28.641788
  },
  {
    "id": "tarim_kredi-7272",
    "name": "Istanbul Esenyurt Flora",
    "market": "tarim_kredi",
    "lat": 41.0918,
    "lon": 28.64412
  },
  {
    "id": "migros-6316",
    "name": "Bahçekent Flora Mm Migros",
    "market": "migros",
    "lat": 41.09256,
    "lon": 28.64629
  },
  {
    "id": "bim-L242",
    "name": "Flora  Başakşehir",
    "market": "bim",
    "lat": 41.092278,
    "lon": 28.646315
  },
  {
    "id": "bim-T213",
    "name": "Hoşdere  Başakşehir",
    "market": "bim",
    "lat": 41.091373,
    "lon": 28.64969
  },
  {
    "id": "a101-F464",
    "name": "Hayatpark Başakşehir Istanbul",
    "market": "a101",
    "lat": 41.091667,
    "lon": 28.649725
  },
  {
    "id": "a101-F097",
    "name": "Başakkent Başakşehir Istanbul",
    "market": "a101",
    "lat": 41.093582,
    "lon": 28.6673
  },
  {
    "id": "bim-R078",
    "name": "Hürmet  Başakşehir",
    "market": "bim",
    "lat": 41.094463,
    "lon": 28.6717
  },
  {
    "id": "migros-9055",
    "name": "Asmalı Bahçeşehir Istanbul M",
    "market": "migros",
    "lat": 41.098534,
    "lon": 28.67585
  }
]